$GPGGA,153831.513,5424.093,N,01428.613,E,1,12,1.0,0.0,M,0.0,M,,*62
$GPGSA,A,3,01,02,03,04,05,06,07,08,09,10,11,12,1.0,1.0,1.0*30
$GPRMC,153831.513,A,5424.093,N,01428.613,E,1947.6,275.4,271124,000.0,W*4C
$GPGGA,153832.513,5424.143,N,01427.689,E,1,12,1.0,0.0,M,0.0,M,,*61
$GPGSA,A,3,01,02,03,04,05,06,07,08,09,10,11,12,1.0,1.0,1.0*30
$GPRMC,153832.513,A,5424.143,N,01427.689,E,1947.5,275.4,271124,000.0,W*4C
$GPGGA,153833.513,5424.194,N,01426.764,E,1,12,1.0,0.0,M,0.0,M,,*69
$GPGSA,A,3,01,02,03,04,05,06,07,08,09,10,11,12,1.0,1.0,1.0*30
$GPRMC,153833.513,A,5424.194,N,01426.764,E,1947.5,275.4,271124,000.0,W*44
$GPGGA,153834.513,5424.244,N,01425.839,E,1,12,1.0,0.0,M,0.0,M,,*64
$GPGSA,A,3,01,02,03,04,05,06,07,08,09,10,11,12,1.0,1.0,1.0*30
$GPRMC,153834.513,A,5424.244,N,01425.839,E,1947.4,275.4,271124,000.0,W*48
$GPGGA,153835.513,5424.294,N,01424.915,E,1,12,1.0,0.0,M,0.0,M,,*66
$GPGSA,A,3,01,02,03,04,05,06,07,08,09,10,11,12,1.0,1.0,1.0*30
$GPRMC,153835.513,A,5424.294,N,01424.915,E,1947.4,275.4,271124,000.0,W*4A
$GPGGA,153836.513,5424.345,N,01423.990,E,1,12,1.0,0.0,M,0.0,M,,*62
$GPGSA,A,3,01,02,03,04,05,06,07,08,09,10,11,12,1.0,1.0,1.0*30
$GPRMC,153836.513,A,5424.345,N,01423.990,E,1947.4,275.4,271124,000.0,W*4E
$GPGGA,153837.513,5424.395,N,01423.065,E,1,12,1.0,0.0,M,0.0,M,,*6D
$GPGSA,A,3,01,02,03,04,05,06,07,08,09,10,11,12,1.0,1.0,1.0*30
$GPRMC,153837.513,A,5424.395,N,01423.065,E,1947.3,275.4,271124,000.0,W*46
$GPGGA,153838.513,5424.445,N,01422.140,E,1,12,1.0,0.0,M,0.0,M,,*6F
$GPGSA,A,3,01,02,03,04,05,06,07,08,09,10,11,12,1.0,1.0,1.0*30
$GPRMC,153838.513,A,5424.445,N,01422.140,E,1947.3,275.4,271124,000.0,W*44
$GPGGA,153839.513,5424.496,N,01421.216,E,1,12,1.0,0.0,M,0.0,M,,*63
$GPGSA,A,3,01,02,03,04,05,06,07,08,09,10,11,12,1.0,1.0,1.0*30
$GPRMC,153839.513,A,5424.496,N,01421.216,E,1947.2,275.4,271124,000.0,W*49
$GPGGA,153840.513,5424.546,N,01420.291,E,1,12,1.0,0.0,M,0.0,M,,*6F
$GPGSA,A,3,01,02,03,04,05,06,07,08,09,10,11,12,1.0,1.0,1.0*30
$GPRMC,153840.513,A,5424.546,N,01420.291,E,1947.2,275.4,271124,000.0,W*45
$GPGGA,153841.513,5424.597,N,01419.366,E,1,12,1.0,0.0,M,0.0,M,,*61
$GPGSA,A,3,01,02,03,04,05,06,07,08,09,10,11,12,1.0,1.0,1.0*30
$GPRMC,153841.513,A,5424.597,N,01419.366,E,1947.2,275.4,271124,000.0,W*4B
$GPGGA,153842.513,5424.647,N,01418.442,E,1,12,1.0,0.0,M,0.0,M,,*6C
$GPGSA,A,3,01,02,03,04,05,06,07,08,09,10,11,12,1.0,1.0,1.0*30
$GPRMC,153842.513,A,5424.647,N,01418.442,E,1947.1,275.4,271124,000.0,W*45
$GPGGA,153843.513,5424.697,N,01417.517,E,1,12,1.0,0.0,M,0.0,M,,*6E
$GPGSA,A,3,01,02,03,04,05,06,07,08,09,10,11,12,1.0,1.0,1.0*30
$GPRMC,153843.513,A,5424.697,N,01417.517,E,1947.1,275.4,271124,000.0,W*47
$GPGGA,153844.513,5424.748,N,01416.592,E,1,12,1.0,0.0,M,0.0,M,,*66
$GPGSA,A,3,01,02,03,04,05,06,07,08,09,10,11,12,1.0,1.0,1.0*30
$GPRMC,153844.513,A,5424.748,N,01416.592,E,1947.0,275.4,271124,000.0,W*4E
$GPGGA,153845.513,5424.798,N,01415.667,E,1,12,1.0,0.0,M,0.0,M,,*60
$GPGSA,A,3,01,02,03,04,05,06,07,08,09,10,11,12,1.0,1.0,1.0*30
$GPRMC,153845.513,A,5424.798,N,01415.667,E,1947.0,275.4,271124,000.0,W*48
$GPGGA,153846.513,5424.848,N,01414.743,E,1,12,1.0,0.0,M,0.0,M,,*67
$GPGSA,A,3,01,02,03,04,05,06,07,08,09,10,11,12,1.0,1.0,1.0*30
$GPRMC,153846.513,A,5424.848,N,01414.743,E,1947.0,275.4,271124,000.0,W*4F
$GPGGA,153847.513,5424.899,N,01413.818,E,1,12,1.0,0.0,M,0.0,M,,*6C
$GPGSA,A,3,01,02,03,04,05,06,07,08,09,10,11,12,1.0,1.0,1.0*30
$GPRMC,153847.513,A,5424.899,N,01413.818,E,1946.9,275.4,271124,000.0,W*4C
$GPGGA,153848.513,5424.949,N,01412.893,E,1,12,1.0,0.0,M,0.0,M,,*6D
$GPGSA,A,3,01,02,03,04,05,06,07,08,09,10,11,12,1.0,1.0,1.0*30
$GPRMC,153848.513,A,5424.949,N,01412.893,E,1946.9,275.4,271124,000.0,W*4D
$GPGGA,153849.513,5424.999,N,01411.969,E,1,12,1.0,0.0,M,0.0,M,,*66
$GPGSA,A,3,01,02,03,04,05,06,07,08,09,10,11,12,1.0,1.0,1.0*30
$GPRMC,153849.513,A,5424.999,N,01411.969,E,1946.9,275.4,271124,000.0,W*46
$GPGGA,153850.513,5425.050,N,01411.044,E,1,12,1.0,0.0,M,0.0,M,,*65
$GPGSA,A,3,01,02,03,04,05,06,07,08,09,10,11,12,1.0,1.0,1.0*30
$GPRMC,153850.513,A,5425.050,N,01411.044,E,1946.8,275.4,271124,000.0,W*44
$GPGGA,153851.513,5425.100,N,01410.119,E,1,12,1.0,0.0,M,0.0,M,,*68
$GPGSA,A,3,01,02,03,04,05,06,07,08,09,10,11,12,1.0,1.0,1.0*30
$GPRMC,153851.513,A,5425.100,N,01410.119,E,1946.8,275.4,271124,000.0,W*49
$GPGGA,153852.513,5425.151,N,01409.194,E,1,12,1.0,0.0,M,0.0,M,,*62
$GPGSA,A,3,01,02,03,04,05,06,07,08,09,10,11,12,1.0,1.0,1.0*30
$GPRMC,153852.513,A,5425.151,N,01409.194,E,1946.7,275.4,271124,000.0,W*4C
$GPGGA,153853.513,5425.201,N,01408.270,E,1,12,1.0,0.0,M,0.0,M,,*6D
$GPGSA,A,3,01,02,03,04,05,06,07,08,09,10,11,12,1.0,1.0,1.0*30
$GPRMC,153853.513,A,5425.201,N,01408.270,E,1946.7,275.4,271124,000.0,W*43
$GPGGA,153854.513,5425.251,N,01407.345,E,1,12,1.0,0.0,M,0.0,M,,*67
$GPGSA,A,3,01,02,03,04,05,06,07,08,09,10,11,12,1.0,1.0,1.0*30
$GPRMC,153854.513,A,5425.251,N,01407.345,E,1946.7,275.4,271124,000.0,W*49
$GPGGA,153855.513,5425.302,N,01406.420,E,1,12,1.0,0.0,M,0.0,M,,*64
$GPGSA,A,3,01,02,03,04,05,06,07,08,09,10,11,12,1.0,1.0,1.0*30
$GPRMC,153855.513,A,5425.302,N,01406.420,E,1946.6,275.4,271124,000.0,W*4B
$GPGGA,153856.513,5425.352,N,01405.495,E,1,12,1.0,0.0,M,0.0,M,,*6F
$GPGSA,A,3,01,02,03,04,05,06,07,08,09,10,11,12,1.0,1.0,1.0*30
$GPRMC,153856.513,A,5425.352,N,01405.495,E,1946.6,275.4,271124,000.0,W*40
$GPGGA,153857.513,5425.402,N,01404.571,E,1,12,1.0,0.0,M,0.0,M,,*66
$GPGSA,A,3,01,02,03,04,05,06,07,08,09,10,11,12,1.0,1.0,1.0*30
$GPRMC,153857.513,A,5425.402,N,01404.571,E,1946.5,275.4,271124,000.0,W*4A
$GPGGA,153858.513,5425.453,N,01403.646,E,1,12,1.0,0.0,M,0.0,M,,*6D
$GPGSA,A,3,01,02,03,04,05,06,07,08,09,10,11,12,1.0,1.0,1.0*30
$GPRMC,153858.513,A,5425.453,N,01403.646,E,1946.5,275.4,271124,000.0,W*41
$GPGGA,153859.513,5425.503,N,01402.721,E,1,12,1.0,0.0,M,0.0,M,,*69
$GPGSA,A,3,01,02,03,04,05,06,07,08,09,10,11,12,1.0,1.0,1.0*30
$GPRMC,153859.513,A,5425.503,N,01402.721,E,1946.5,275.4,271124,000.0,W*45
$GPGGA,153900.513,5425.554,N,01401.797,E,1,12,1.0,0.0,M,0.0,M,,*68
$GPGSA,A,3,01,02,03,04,05,06,07,08,09,10,11,12,1.0,1.0,1.0*30
$GPRMC,153900.513,A,5425.554,N,01401.797,E,1946.4,275.4,271124,000.0,W*45
$GPGGA,153901.513,5425.604,N,01400.872,E,1,12,1.0,0.0,M,0.0,M,,*6A
$GPGSA,A,3,01,02,03,04,05,06,07,08,09,10,11,12,1.0,1.0,1.0*30
$GPRMC,153901.513,A,5425.604,N,01400.872,E,1946.4,275.4,271124,000.0,W*47
$GPGGA,153902.513,5425.654,N,01359.947,E,1,12,1.0,0.0,M,0.0,M,,*60
$GPGSA,A,3,01,02,03,04,05,06,07,08,09,10,11,12,1.0,1.0,1.0*30
$GPRMC,153902.513,A,5425.654,N,01359.947,E,1946.3,275.4,271124,000.0,W*4A
$GPGGA,153903.513,5425.705,N,01359.022,E,1,12,1.0,0.0,M,0.0,M,,*6E
$GPGSA,A,3,01,02,03,04,05,06,07,08,09,10,11,12,1.0,1.0,1.0*30
$GPRMC,153903.513,A,5425.705,N,01359.022,E,1946.3,275.4,271124,000.0,W*44
$GPGGA,153904.513,5425.755,N,01358.098,E,1,12,1.0,0.0,M,0.0,M,,*6C
$GPGSA,A,3,01,02,03,04,05,06,07,08,09,10,11,12,1.0,1.0,1.0*30
$GPRMC,153904.513,A,5425.755,N,01358.098,E,1946.3,275.4,271124,000.0,W*46
$GPGGA,153905.513,5425.805,N,01357.173,E,1,12,1.0,0.0,M,0.0,M,,*6C
$GPGSA,A,3,01,02,03,04,05,06,07,08,09,10,11,12,1.0,1.0,1.0*30
$GPRMC,153905.513,A,5425.805,N,01357.173,E,1946.2,275.4,271124,000.0,W*47
$GPGGA,153906.513,5425.856,N,01356.248,E,1,12,1.0,0.0,M,0.0,M,,*63
$GPGSA,A,3,01,02,03,04,05,06,07,08,09,10,11,12,1.0,1.0,1.0*30
$GPRMC,153906.513,A,5425.856,N,01356.248,E,1946.2,275.4,271124,000.0,W*48
$GPGGA,153907.513,5425.906,N,01355.324,E,1,12,1.0,0.0,M,0.0,M,,*6E
$GPGSA,A,3,01,02,03,04,05,06,07,08,09,10,11,12,1.0,1.0,1.0*30
$GPRMC,153907.513,A,5425.906,N,01355.324,E,1946.1,275.4,271124,000.0,W*46
$GPGGA,153908.513,5425.956,N,01354.399,E,1,12,1.0,0.0,M,0.0,M,,*63
$GPGSA,A,3,01,02,03,04,05,06,07,08,09,10,11,12,1.0,1.0,1.0*30
$GPRMC,153908.513,A,5425.956,N,01354.399,E,1946.1,275.4,271124,000.0,W*4B
$GPGGA,153909.513,5426.007,N,01353.474,E,1,12,1.0,0.0,M,0.0,M,,*6F
$GPGSA,A,3,01,02,03,04,05,06,07,08,09,10,11,12,1.0,1.0,1.0*30
$GPRMC,153909.513,A,5426.007,N,01353.474,E,1946.1,275.4,271124,000.0,W*47
$GPGGA,153910.513,5426.057,N,01352.549,E,1,12,1.0,0.0,M,0.0,M,,*6C
$GPGSA,A,3,01,02,03,04,05,06,07,08,09,10,11,12,1.0,1.0,1.0*30
$GPRMC,153910.513,A,5426.057,N,01352.549,E,1946.0,275.4,271124,000.0,W*45
$GPGGA,153911.513,5426.108,N,01351.625,E,1,12,1.0,0.0,M,0.0,M,,*6C
$GPGSA,A,3,01,02,03,04,05,06,07,08,09,10,11,12,1.0,1.0,1.0*30
$GPRMC,153911.513,A,5426.108,N,01351.625,E,1946.0,275.4,271124,000.0,W*45
$GPGGA,153912.513,5426.158,N,01350.700,E,1,12,1.0,0.0,M,0.0,M,,*6D
$GPGSA,A,3,01,02,03,04,05,06,07,08,09,10,11,12,1.0,1.0,1.0*30
$GPRMC,153912.513,A,5426.158,N,01350.700,E,1945.9,275.4,271124,000.0,W*4E
$GPGGA,153913.513,5426.208,N,01349.775,E,1,12,1.0,0.0,M,0.0,M,,*60
$GPGSA,A,3,01,02,03,04,05,06,07,08,09,10,11,12,1.0,1.0,1.0*30
$GPRMC,153913.513,A,5426.208,N,01349.775,E,1945.9,275.4,271124,000.0,W*43
$GPGGA,153914.513,5426.259,N,01348.851,E,1,12,1.0,0.0,M,0.0,M,,*6B
$GPGSA,A,3,01,02,03,04,05,06,07,08,09,10,11,12,1.0,1.0,1.0*30
$GPRMC,153914.513,A,5426.259,N,01348.851,E,1945.9,275.4,271124,000.0,W*48
$GPGGA,153915.513,5426.309,N,01347.926,E,1,12,1.0,0.0,M,0.0,M,,*60
$GPGSA,A,3,01,02,03,04,05,06,07,08,09,10,11,12,1.0,1.0,1.0*30
$GPRMC,153915.513,A,5426.309,N,01347.926,E,1945.8,275.4,271124,000.0,W*42
$GPGGA,153916.513,5426.359,N,01347.001,E,1,12,1.0,0.0,M,0.0,M,,*6A
$GPGSA,A,3,01,02,03,04,05,06,07,08,09,10,11,12,1.0,1.0,1.0*30
$GPRMC,153916.513,A,5426.359,N,01347.001,E,1945.8,275.4,271124,000.0,W*48
$GPGGA,153917.513,5426.410,N,01346.076,E,1,12,1.0,0.0,M,0.0,M,,*60
$GPGSA,A,3,01,02,03,04,05,06,07,08,09,10,11,12,1.0,1.0,1.0*30
$GPRMC,153917.513,A,5426.410,N,01346.076,E,1945.7,275.4,271124,000.0,W*4D
$GPGGA,153918.513,5426.460,N,01345.152,E,1,12,1.0,0.0,M,0.0,M,,*6C
$GPGSA,A,3,01,02,03,04,05,06,07,08,09,10,11,12,1.0,1.0,1.0*30
$GPRMC,153918.513,A,5426.460,N,01345.152,E,1945.7,275.4,271124,000.0,W*41
$GPGGA,153919.513,5426.511,N,01344.227,E,1,12,1.0,0.0,M,0.0,M,,*6A
$GPGSA,A,3,01,02,03,04,05,06,07,08,09,10,11,12,1.0,1.0,1.0*30
$GPRMC,153919.513,A,5426.511,N,01344.227,E,1945.7,275.4,271124,000.0,W*47
$GPGGA,153920.513,5426.561,N,01343.302,E,1,12,1.0,0.0,M,0.0,M,,*66
$GPGSA,A,3,01,02,03,04,05,06,07,08,09,10,11,12,1.0,1.0,1.0*30
$GPRMC,153920.513,A,5426.561,N,01343.302,E,1945.6,275.4,271124,000.0,W*4A
$GPGGA,153921.513,5426.611,N,01342.378,E,1,12,1.0,0.0,M,0.0,M,,*6F
$GPGSA,A,3,01,02,03,04,05,06,07,08,09,10,11,12,1.0,1.0,1.0*30
$GPRMC,153921.513,A,5426.611,N,01342.378,E,1945.6,275.4,271124,000.0,W*43
$GPGGA,153922.513,5426.662,N,01341.453,E,1,12,1.0,0.0,M,0.0,M,,*65
$GPGSA,A,3,01,02,03,04,05,06,07,08,09,10,11,12,1.0,1.0,1.0*30
$GPRMC,153922.513,A,5426.662,N,01341.453,E,1945.5,275.4,271124,000.0,W*4A
$GPGGA,153923.513,5426.712,N,01340.528,E,1,12,1.0,0.0,M,0.0,M,,*6E
$GPGSA,A,3,01,02,03,04,05,06,07,08,09,10,11,12,1.0,1.0,1.0*30
$GPRMC,153923.513,A,5426.712,N,01340.528,E,1945.5,275.4,271124,000.0,W*41
$GPGGA,153924.513,5426.762,N,01339.603,E,1,12,1.0,0.0,M,0.0,M,,*6A
$GPGSA,A,3,01,02,03,04,05,06,07,08,09,10,11,12,1.0,1.0,1.0*30
$GPRMC,153924.513,A,5426.762,N,01339.603,E,1945.5,275.4,271124,000.0,W*45
$GPGGA,153925.513,5426.813,N,01338.679,E,1,12,1.0,0.0,M,0.0,M,,*6E
$GPGSA,A,3,01,02,03,04,05,06,07,08,09,10,11,12,1.0,1.0,1.0*30
$GPRMC,153925.513,A,5426.813,N,01338.679,E,1945.4,275.4,271124,000.0,W*40
$GPGGA,153926.513,5426.863,N,01337.754,E,1,12,1.0,0.0,M,0.0,M,,*6B
$GPGSA,A,3,01,02,03,04,05,06,07,08,09,10,11,12,1.0,1.0,1.0*30
$GPRMC,153926.513,A,5426.863,N,01337.754,E,1945.4,275.4,271124,000.0,W*45
$GPGGA,153927.513,5426.913,N,01336.829,E,1,12,1.0,0.0,M,0.0,M,,*68
$GPGSA,A,3,01,02,03,04,05,06,07,08,09,10,11,12,1.0,1.0,1.0*30
$GPRMC,153927.513,A,5426.913,N,01336.829,E,1945.4,275.4,271124,000.0,W*46
$GPGGA,153928.513,5426.964,N,01335.904,E,1,12,1.0,0.0,M,0.0,M,,*6A
$GPGSA,A,3,01,02,03,04,05,06,07,08,09,10,11,12,1.0,1.0,1.0*30
$GPRMC,153928.513,A,5426.964,N,01335.904,E,1945.3,275.4,271124,000.0,W*43
$GPGGA,153929.513,5427.014,N,01334.980,E,1,12,1.0,0.0,M,0.0,M,,*69
$GPGSA,A,3,01,02,03,04,05,06,07,08,09,10,11,12,1.0,1.0,1.0*30
$GPRMC,153929.513,A,5427.014,N,01334.980,E,1945.3,275.4,271124,000.0,W*40
$GPGGA,153930.513,5427.065,N,01334.055,E,1,12,1.0,0.0,M,0.0,M,,*66
$GPGSA,A,3,01,02,03,04,05,06,07,08,09,10,11,12,1.0,1.0,1.0*30
$GPRMC,153930.513,A,5427.065,N,01334.055,E,1945.2,275.4,271124,000.0,W*4E
$GPGGA,153931.513,5427.115,N,01333.130,E,1,12,1.0,0.0,M,0.0,M,,*64
$GPGSA,A,3,01,02,03,04,05,06,07,08,09,10,11,12,1.0,1.0,1.0*30
$GPRMC,153931.513,A,5427.115,N,01333.130,E,1945.2,275.4,271124,000.0,W*4C
$GPGGA,153932.513,5427.165,N,01332.206,E,1,12,1.0,0.0,M,0.0,M,,*67
$GPGSA,A,3,01,02,03,04,05,06,07,08,09,10,11,12,1.0,1.0,1.0*30
$GPRMC,153932.513,A,5427.165,N,01332.206,E,1945.2,275.4,271124,000.0,W*4F
$GPGGA,153933.513,5427.216,N,01331.281,E,1,12,1.0,0.0,M,0.0,M,,*6D
$GPGSA,A,3,01,02,03,04,05,06,07,08,09,10,11,12,1.0,1.0,1.0*30
$GPRMC,153933.513,A,5427.216,N,01331.281,E,1945.1,275.4,271124,000.0,W*46
$GPGGA,153934.513,5427.266,N,01330.356,E,1,12,1.0,0.0,M,0.0,M,,*67
$GPGSA,A,3,01,02,03,04,05,06,07,08,09,10,11,12,1.0,1.0,1.0*30
$GPRMC,153934.513,A,5427.266,N,01330.356,E,1945.1,275.4,271124,000.0,W*4C
$GPGGA,153935.513,5427.316,N,01329.431,E,1,12,1.0,0.0,M,0.0,M,,*6E
$GPGSA,A,3,01,02,03,04,05,06,07,08,09,10,11,12,1.0,1.0,1.0*30
$GPRMC,153935.513,A,5427.316,N,01329.431,E,1945.0,275.4,271124,000.0,W*44
$GPGGA,153936.513,5427.367,N,01328.507,E,1,12,1.0,0.0,M,0.0,M,,*6E
$GPGSA,A,3,01,02,03,04,05,06,07,08,09,10,11,12,1.0,1.0,1.0*30
$GPRMC,153936.513,A,5427.367,N,01328.507,E,1945.0,275.4,271124,000.0,W*44
$GPGGA,153937.513,5427.417,N,01327.582,E,1,12,1.0,0.0,M,0.0,M,,*6D
$GPGSA,A,3,01,02,03,04,05,06,07,08,09,10,11,12,1.0,1.0,1.0*30
$GPRMC,153937.513,A,5427.417,N,01327.582,E,1945.0,275.4,271124,000.0,W*47
$GPGGA,153938.513,5427.468,N,01326.657,E,1,12,1.0,0.0,M,0.0,M,,*60
$GPGSA,A,3,01,02,03,04,05,06,07,08,09,10,11,12,1.0,1.0,1.0*30
$GPRMC,153938.513,A,5427.468,N,01326.657,E,1944.9,275.4,271124,000.0,W*42
$GPGGA,153939.513,5427.518,N,01325.733,E,1,12,1.0,0.0,M,0.0,M,,*67
$GPGSA,A,3,01,02,03,04,05,06,07,08,09,10,11,12,1.0,1.0,1.0*30
$GPRMC,153939.513,A,5427.518,N,01325.733,E,1944.9,275.4,271124,000.0,W*45
$GPGGA,153940.513,5427.568,N,01324.808,E,1,12,1.0,0.0,M,0.0,M,,*68
$GPGSA,A,3,01,02,03,04,05,06,07,08,09,10,11,12,1.0,1.0,1.0*30
$GPRMC,153940.513,A,5427.568,N,01324.808,E,1944.8,275.4,271124,000.0,W*4B
$GPGGA,153941.513,5427.619,N,01323.883,E,1,12,1.0,0.0,M,0.0,M,,*68
$GPGSA,A,3,01,02,03,04,05,06,07,08,09,10,11,12,1.0,1.0,1.0*30
$GPRMC,153941.513,A,5427.619,N,01323.883,E,1944.8,275.4,271124,000.0,W*4B
$GPGGA,153942.513,5427.669,N,01322.958,E,1,12,1.0,0.0,M,0.0,M,,*6A
$GPGSA,A,3,01,02,03,04,05,06,07,08,09,10,11,12,1.0,1.0,1.0*30
$GPRMC,153942.513,A,5427.669,N,01322.958,E,1944.8,275.4,271124,000.0,W*49
$GPGGA,153943.513,5427.719,N,01322.034,E,1,12,1.0,0.0,M,0.0,M,,*6E
$GPGSA,A,3,01,02,03,04,05,06,07,08,09,10,11,12,1.0,1.0,1.0*30
$GPRMC,153943.513,A,5427.719,N,01322.034,E,1944.7,275.4,271124,000.0,W*42
$GPGGA,153944.513,5427.770,N,01321.109,E,1,12,1.0,0.0,M,0.0,M,,*6A
$GPGSA,A,3,01,02,03,04,05,06,07,08,09,10,11,12,1.0,1.0,1.0*30
$GPRMC,153944.513,A,5427.770,N,01321.109,E,1944.7,275.4,271124,000.0,W*46
$GPGGA,153945.513,5427.820,N,01320.184,E,1,12,1.0,0.0,M,0.0,M,,*65
$GPGSA,A,3,01,02,03,04,05,06,07,08,09,10,11,12,1.0,1.0,1.0*30
$GPRMC,153945.513,A,5427.820,N,01320.184,E,1944.6,275.4,271124,000.0,W*48
$GPGGA,153946.513,5427.871,N,01319.260,E,1,12,1.0,0.0,M,0.0,M,,*61
$GPGSA,A,3,01,02,03,04,05,06,07,08,09,10,11,12,1.0,1.0,1.0*30
$GPRMC,153946.513,A,5427.871,N,01319.260,E,1944.6,275.4,271124,000.0,W*4C
$GPGGA,153947.513,5427.921,N,01318.335,E,1,12,1.0,0.0,M,0.0,M,,*64
$GPGSA,A,3,01,02,03,04,05,06,07,08,09,10,11,12,1.0,1.0,1.0*30
$GPRMC,153947.513,A,5427.921,N,01318.335,E,1944.6,275.4,271124,000.0,W*49
$GPGGA,153948.513,5427.971,N,01317.410,E,1,12,1.0,0.0,M,0.0,M,,*61
$GPGSA,A,3,01,02,03,04,05,06,07,08,09,10,11,12,1.0,1.0,1.0*30
$GPRMC,153948.513,A,5427.971,N,01317.410,E,1944.5,275.4,271124,000.0,W*4F
$GPGGA,153949.513,5428.022,N,01316.485,E,1,12,1.0,0.0,M,0.0,M,,*6D
$GPGSA,A,3,01,02,03,04,05,06,07,08,09,10,11,12,1.0,1.0,1.0*30
$GPRMC,153949.513,A,5428.022,N,01316.485,E,1944.5,275.4,271124,000.0,W*43
$GPGGA,153950.513,5428.072,N,01315.561,E,1,12,1.0,0.0,M,0.0,M,,*68
$GPGSA,A,3,01,02,03,04,05,06,07,08,09,10,11,12,1.0,1.0,1.0*30
$GPRMC,153950.513,A,5428.072,N,01315.561,E,1944.4,275.4,271124,000.0,W*47
$GPGGA,153951.513,5428.122,N,01314.636,E,1,12,1.0,0.0,M,0.0,M,,*6D
$GPGSA,A,3,01,02,03,04,05,06,07,08,09,10,11,12,1.0,1.0,1.0*30
$GPRMC,153951.513,A,5428.122,N,01314.636,E,1944.4,275.4,271124,000.0,W*42
$GPGGA,153952.513,5428.173,N,01313.711,E,1,12,1.0,0.0,M,0.0,M,,*69
$GPGSA,A,3,01,02,03,04,05,06,07,08,09,10,11,12,1.0,1.0,1.0*30
$GPRMC,153952.513,A,5428.173,N,01313.711,E,1944.4,275.4,271124,000.0,W*46
$GPGGA,153953.513,5428.223,N,01312.787,E,1,12,1.0,0.0,M,0.0,M,,*60
$GPGSA,A,3,01,02,03,04,05,06,07,08,09,10,11,12,1.0,1.0,1.0*30
$GPRMC,153953.513,A,5428.223,N,01312.787,E,1944.3,275.4,271124,000.0,W*48
$GPGGA,153954.513,5428.273,N,01311.862,E,1,12,1.0,0.0,M,0.0,M,,*65
$GPGSA,A,3,01,02,03,04,05,06,07,08,09,10,11,12,1.0,1.0,1.0*30
$GPRMC,153954.513,A,5428.273,N,01311.862,E,1944.3,275.4,271124,000.0,W*4D
$GPGGA,153955.513,5428.324,N,01310.937,E,1,12,1.0,0.0,M,0.0,M,,*67
$GPGSA,A,3,01,02,03,04,05,06,07,08,09,10,11,12,1.0,1.0,1.0*30
$GPRMC,153955.513,A,5428.324,N,01310.937,E,1944.2,275.4,271124,000.0,W*4E
$GPGGA,153956.513,5428.374,N,01310.012,E,1,12,1.0,0.0,M,0.0,M,,*6F
$GPGSA,A,3,01,02,03,04,05,06,07,08,09,10,11,12,1.0,1.0,1.0*30
$GPRMC,153956.513,A,5428.374,N,01310.012,E,1944.2,275.4,271124,000.0,W*46
$GPGGA,153957.513,5428.425,N,01309.088,E,1,12,1.0,0.0,M,0.0,M,,*66
$GPGSA,A,3,01,02,03,04,05,06,07,08,09,10,11,12,1.0,1.0,1.0*30
$GPRMC,153957.513,A,5428.425,N,01309.088,E,1944.2,275.4,271124,000.0,W*4F
$GPGGA,153958.513,5428.475,N,01308.163,E,1,12,1.0,0.0,M,0.0,M,,*69
$GPGSA,A,3,01,02,03,04,05,06,07,08,09,10,11,12,1.0,1.0,1.0*30
$GPRMC,153958.513,A,5428.475,N,01308.163,E,1944.1,275.4,271124,000.0,W*43
$GPGGA,153959.513,5428.525,N,01307.238,E,1,12,1.0,0.0,M,0.0,M,,*6E
$GPGSA,A,3,01,02,03,04,05,06,07,08,09,10,11,12,1.0,1.0,1.0*30
$GPRMC,153959.513,A,5428.525,N,01307.238,E,1944.1,275.4,271124,000.0,W*44
$GPGGA,154000.513,5428.576,N,01306.314,E,1,12,1.0,0.0,M,0.0,M,,*64
$GPGSA,A,3,01,02,03,04,05,06,07,08,09,10,11,12,1.0,1.0,1.0*30
$GPRMC,154000.513,A,5428.576,N,01306.314,E,1944.0,275.4,271124,000.0,W*4F
$GPGGA,154001.513,5428.626,N,01305.389,E,1,12,1.0,0.0,M,0.0,M,,*64
$GPGSA,A,3,01,02,03,04,05,06,07,08,09,10,11,12,1.0,1.0,1.0*30
$GPRMC,154001.513,A,5428.626,N,01305.389,E,1944.0,275.4,271124,000.0,W*4F
$GPGGA,154002.513,5428.676,N,01304.464,E,1,12,1.0,0.0,M,0.0,M,,*67
$GPGSA,A,3,01,02,03,04,05,06,07,08,09,10,11,12,1.0,1.0,1.0*30
$GPRMC,154002.513,A,5428.676,N,01304.464,E,1944.0,275.4,271124,000.0,W*4C
$GPGGA,154003.513,5428.727,N,01303.539,E,1,12,1.0,0.0,M,0.0,M,,*6D
$GPGSA,A,3,01,02,03,04,05,06,07,08,09,10,11,12,1.0,1.0,1.0*30
$GPRMC,154003.513,A,5428.727,N,01303.539,E,1943.9,275.4,271124,000.0,W*48
$GPGGA,154004.513,5428.777,N,01302.615,E,1,12,1.0,0.0,M,0.0,M,,*63
$GPGSA,A,3,01,02,03,04,05,06,07,08,09,10,11,12,1.0,1.0,1.0*30
$GPRMC,154004.513,A,5428.777,N,01302.615,E,1943.9,275.4,271124,000.0,W*46
$GPGGA,154005.513,5428.828,N,01301.690,E,1,12,1.0,0.0,M,0.0,M,,*69
$GPGSA,A,3,01,02,03,04,05,06,07,08,09,10,11,12,1.0,1.0,1.0*30
$GPRMC,154005.513,A,5428.828,N,01301.690,E,1943.8,275.4,271124,000.0,W*4D
$GPGGA,154006.513,5428.878,N,01300.765,E,1,12,1.0,0.0,M,0.0,M,,*65
$GPGSA,A,3,01,02,03,04,05,06,07,08,09,10,11,12,1.0,1.0,1.0*30
$GPRMC,154006.513,A,5428.878,N,01300.765,E,1943.8,275.4,271124,000.0,W*41
$GPGGA,154007.513,5428.928,N,01259.840,E,1,12,1.0,0.0,M,0.0,M,,*65
$GPGSA,A,3,01,02,03,04,05,06,07,08,09,10,11,12,1.0,1.0,1.0*30
$GPRMC,154007.513,A,5428.928,N,01259.840,E,1943.8,275.4,271124,000.0,W*41
$GPGGA,154008.513,5428.979,N,01258.916,E,1,12,1.0,0.0,M,0.0,M,,*6D
$GPGSA,A,3,01,02,03,04,05,06,07,08,09,10,11,12,1.0,1.0,1.0*30
$GPRMC,154008.513,A,5428.979,N,01258.916,E,1943.7,275.4,271124,000.0,W*46
$GPGGA,154009.513,5429.029,N,01257.991,E,1,12,1.0,0.0,M,0.0,M,,*61
$GPGSA,A,3,01,02,03,04,05,06,07,08,09,10,11,12,1.0,1.0,1.0*30
$GPRMC,154009.513,A,5429.029,N,01257.991,E,1943.7,275.4,271124,000.0,W*4A
$GPGGA,154010.513,5429.079,N,01257.066,E,1,12,1.0,0.0,M,0.0,M,,*6D
$GPGSA,A,3,01,02,03,04,05,06,07,08,09,10,11,12,1.0,1.0,1.0*30
$GPRMC,154010.513,A,5429.079,N,01257.066,E,1943.6,275.4,271124,000.0,W*47
$GPGGA,154011.513,5429.130,N,01256.142,E,1,12,1.0,0.0,M,0.0,M,,*66
$GPGSA,A,3,01,02,03,04,05,06,07,08,09,10,11,12,1.0,1.0,1.0*30
$GPRMC,154011.513,A,5429.130,N,01256.142,E,1943.6,275.4,271124,000.0,W*4C
$GPGGA,154012.513,5429.180,N,01255.217,E,1,12,1.0,0.0,M,0.0,M,,*6E
$GPGSA,A,3,01,02,03,04,05,06,07,08,09,10,11,12,1.0,1.0,1.0*30
$GPRMC,154012.513,A,5429.180,N,01255.217,E,1943.6,275.4,271124,000.0,W*44
$GPGGA,154013.513,5429.230,N,01254.292,E,1,12,1.0,0.0,M,0.0,M,,*6B
$GPGSA,A,3,01,02,03,04,05,06,07,08,09,10,11,12,1.0,1.0,1.0*30
$GPRMC,154013.513,A,5429.230,N,01254.292,E,1943.5,275.4,271124,000.0,W*42
$GPGGA,154014.513,5429.281,N,01253.367,E,1,12,1.0,0.0,M,0.0,M,,*6A
$GPGSA,A,3,01,02,03,04,05,06,07,08,09,10,11,12,1.0,1.0,1.0*30
$GPRMC,154014.513,A,5429.281,N,01253.367,E,1943.5,275.4,271124,000.0,W*43
$GPGGA,154015.513,5429.331,N,01252.443,E,1,12,1.0,0.0,M,0.0,M,,*61
$GPGSA,A,3,01,02,03,04,05,06,07,08,09,10,11,12,1.0,1.0,1.0*30
$GPRMC,154015.513,A,5429.331,N,01252.443,E,1943.5,275.4,271124,000.0,W*48
$GPGGA,154016.513,5429.382,N,01251.518,E,1,12,1.0,0.0,M,0.0,M,,*66
$GPGSA,A,3,01,02,03,04,05,06,07,08,09,10,11,12,1.0,1.0,1.0*30
$GPRMC,154016.513,A,5429.382,N,01251.518,E,1943.4,275.4,271124,000.0,W*4E
$GPGGA,154017.513,5429.432,N,01250.593,E,1,12,1.0,0.0,M,0.0,M,,*69
$GPGSA,A,3,01,02,03,04,05,06,07,08,09,10,11,12,1.0,1.0,1.0*30
$GPRMC,154017.513,A,5429.432,N,01250.593,E,1943.4,275.4,271124,000.0,W*41
$GPGGA,154018.513,5429.482,N,01249.669,E,1,12,1.0,0.0,M,0.0,M,,*63
$GPGSA,A,3,01,02,03,04,05,06,07,08,09,10,11,12,1.0,1.0,1.0*30
$GPRMC,154018.513,A,5429.482,N,01249.669,E,1943.3,275.4,271124,000.0,W*4C
$GPGGA,154019.513,5429.533,N,01248.744,E,1,12,1.0,0.0,M,0.0,M,,*66
$GPGSA,A,3,01,02,03,04,05,06,07,08,09,10,11,12,1.0,1.0,1.0*30
$GPRMC,154019.513,A,5429.533,N,01248.744,E,1943.3,275.4,271124,000.0,W*49
$GPGGA,154020.513,5429.583,N,01247.819,E,1,12,1.0,0.0,M,0.0,M,,*6F
$GPGSA,A,3,01,02,03,04,05,06,07,08,09,10,11,12,1.0,1.0,1.0*30
$GPRMC,154020.513,A,5429.583,N,01247.819,E,1943.3,275.4,271124,000.0,W*40
$GPGGA,154021.513,5429.633,N,01246.894,E,1,12,1.0,0.0,M,0.0,M,,*62
$GPGSA,A,3,01,02,03,04,05,06,07,08,09,10,11,12,1.0,1.0,1.0*30
$GPRMC,154021.513,A,5429.633,N,01246.894,E,1943.2,275.4,271124,000.0,W*4C
$GPGGA,154022.513,5429.684,N,01245.970,E,1,12,1.0,0.0,M,0.0,M,,*65
$GPGSA,A,3,01,02,03,04,05,06,07,08,09,10,11,12,1.0,1.0,1.0*30
$GPRMC,154022.513,A,5429.684,N,01245.970,E,1943.2,275.4,271124,000.0,W*4B
$GPGGA,154023.513,5429.734,N,01245.045,E,1,12,1.0,0.0,M,0.0,M,,*61
$GPGSA,A,3,01,02,03,04,05,06,07,08,09,10,11,12,1.0,1.0,1.0*30
$GPRMC,154023.513,A,5429.734,N,01245.045,E,1943.1,275.4,271124,000.0,W*4C
$GPGGA,154024.513,5429.785,N,01244.120,E,1,12,1.0,0.0,M,0.0,M,,*6F
$GPGSA,A,3,01,02,03,04,05,06,07,08,09,10,11,12,1.0,1.0,1.0*30
$GPRMC,154024.513,A,5429.785,N,01244.120,E,1943.1,275.4,271124,000.0,W*42
$GPGGA,154025.513,5429.835,N,01243.196,E,1,12,1.0,0.0,M,0.0,M,,*60
$GPGSA,A,3,01,02,03,04,05,06,07,08,09,10,11,12,1.0,1.0,1.0*30
$GPRMC,154025.513,A,5429.835,N,01243.196,E,1943.1,275.4,271124,000.0,W*4D
$GPGGA,154026.513,5429.885,N,01242.271,E,1,12,1.0,0.0,M,0.0,M,,*63
$GPGSA,A,3,01,02,03,04,05,06,07,08,09,10,11,12,1.0,1.0,1.0*30
$GPRMC,154026.513,A,5429.885,N,01242.271,E,1943.0,275.4,271124,000.0,W*4F
$GPGGA,154027.513,5429.936,N,01241.346,E,1,12,1.0,0.0,M,0.0,M,,*6D
$GPGSA,A,3,01,02,03,04,05,06,07,08,09,10,11,12,1.0,1.0,1.0*30
$GPRMC,154027.513,A,5429.936,N,01241.346,E,1943.0,275.4,271124,000.0,W*41
$GPGGA,154028.513,5429.986,N,01240.421,E,1,12,1.0,0.0,M,0.0,M,,*6E
$GPGSA,A,3,01,02,03,04,05,06,07,08,09,10,11,12,1.0,1.0,1.0*30
$GPRMC,154028.513,A,5429.986,N,01240.421,E,1942.9,275.4,271124,000.0,W*4A
$GPGGA,154029.513,5430.036,N,01239.497,E,1,12,1.0,0.0,M,0.0,M,,*66
$GPGSA,A,3,01,02,03,04,05,06,07,08,09,10,11,12,1.0,1.0,1.0*30
$GPRMC,154029.513,A,5430.036,N,01239.497,E,1942.9,275.4,271124,000.0,W*42
$GPGGA,154030.513,5430.087,N,01238.572,E,1,12,1.0,0.0,M,0.0,M,,*6F
$GPGSA,A,3,01,02,03,04,05,06,07,08,09,10,11,12,1.0,1.0,1.0*30
$GPRMC,154030.513,A,5430.087,N,01238.572,E,1942.9,275.4,271124,000.0,W*4B
$GPGGA,154031.513,5430.137,N,01237.647,E,1,12,1.0,0.0,M,0.0,M,,*6E
$GPGSA,A,3,01,02,03,04,05,06,07,08,09,10,11,12,1.0,1.0,1.0*30
$GPRMC,154031.513,A,5430.137,N,01237.647,E,1942.8,275.4,271124,000.0,W*4B
$GPGGA,154032.513,5430.188,N,01236.723,E,1,12,1.0,0.0,M,0.0,M,,*6B
$GPGSA,A,3,01,02,03,04,05,06,07,08,09,10,11,12,1.0,1.0,1.0*30
$GPRMC,154032.513,A,5430.188,N,01236.723,E,1942.8,275.4,271124,000.0,W*4E
$GPGGA,154033.513,5430.238,N,01235.798,E,1,12,1.0,0.0,M,0.0,M,,*61
$GPGSA,A,3,01,02,03,04,05,06,07,08,09,10,11,12,1.0,1.0,1.0*30
$GPRMC,154033.513,A,5430.238,N,01235.798,E,1942.7,275.4,271124,000.0,W*4B
$GPGGA,154034.513,5430.288,N,01234.873,E,1,12,1.0,0.0,M,0.0,M,,*66
$GPGSA,A,3,01,02,03,04,05,06,07,08,09,10,11,12,1.0,1.0,1.0*30
$GPRMC,154034.513,A,5430.288,N,01234.873,E,1942.7,275.4,271124,000.0,W*4C
$GPGGA,154035.513,5430.339,N,01233.948,E,1,12,1.0,0.0,M,0.0,M,,*62
$GPGSA,A,3,01,02,03,04,05,06,07,08,09,10,11,12,1.0,1.0,1.0*30
$GPRMC,154035.513,A,5430.339,N,01233.948,E,1942.7,275.4,271124,000.0,W*48
$GPGGA,154036.513,5430.389,N,01233.024,E,1,12,1.0,0.0,M,0.0,M,,*69
$GPGSA,A,3,01,02,03,04,05,06,07,08,09,10,11,12,1.0,1.0,1.0*30
$GPRMC,154036.513,A,5430.389,N,01233.024,E,1942.6,275.4,271124,000.0,W*42
$GPGGA,154037.513,5430.439,N,01232.099,E,1,12,1.0,0.0,M,0.0,M,,*63
$GPGSA,A,3,01,02,03,04,05,06,07,08,09,10,11,12,1.0,1.0,1.0*30
$GPRMC,154037.513,A,5430.439,N,01232.099,E,1942.6,275.4,271124,000.0,W*48
$GPGGA,154038.513,5430.490,N,01231.174,E,1,12,1.0,0.0,M,0.0,M,,*6E
$GPGSA,A,3,01,02,03,04,05,06,07,08,09,10,11,12,1.0,1.0,1.0*30
$GPRMC,154038.513,A,5430.490,N,01231.174,E,1942.5,275.4,271124,000.0,W*46
$GPGGA,154039.513,5430.540,N,01230.249,E,1,12,1.0,0.0,M,0.0,M,,*6F
$GPGSA,A,3,01,02,03,04,05,06,07,08,09,10,11,12,1.0,1.0,1.0*30
$GPRMC,154039.513,A,5430.540,N,01230.249,E,1942.5,275.4,271124,000.0,W*47
$GPGGA,154040.513,5430.590,N,01229.325,E,1,12,1.0,0.0,M,0.0,M,,*6F
$GPGSA,A,3,01,02,03,04,05,06,07,08,09,10,11,12,1.0,1.0,1.0*30
$GPRMC,154040.513,A,5430.590,N,01229.325,E,1942.5,275.4,271124,000.0,W*47
$GPGGA,154041.513,5430.641,N,01228.400,E,1,12,1.0,0.0,M,0.0,M,,*60
$GPGSA,A,3,01,02,03,04,05,06,07,08,09,10,11,12,1.0,1.0,1.0*30
$GPRMC,154041.513,A,5430.641,N,01228.400,E,1942.4,275.4,271124,000.0,W*49
$GPGGA,154042.513,5430.691,N,01227.475,E,1,12,1.0,0.0,M,0.0,M,,*63
$GPGSA,A,3,01,02,03,04,05,06,07,08,09,10,11,12,1.0,1.0,1.0*30
$GPRMC,154042.513,A,5430.691,N,01227.475,E,1942.4,275.4,271124,000.0,W*4A
$GPGGA,154043.513,5430.742,N,01226.551,E,1,12,1.0,0.0,M,0.0,M,,*6B
$GPGSA,A,3,01,02,03,04,05,06,07,08,09,10,11,12,1.0,1.0,1.0*30
$GPRMC,154043.513,A,5430.742,N,01226.551,E,1942.3,275.4,271124,000.0,W*45
$GPGGA,154044.513,5430.792,N,01225.626,E,1,12,1.0,0.0,M,0.0,M,,*61
$GPGSA,A,3,01,02,03,04,05,06,07,08,09,10,11,12,1.0,1.0,1.0*30
$GPRMC,154044.513,A,5430.792,N,01225.626,E,1942.3,275.4,271124,000.0,W*4F
$GPGGA,154045.513,5430.842,N,01224.701,E,1,12,1.0,0.0,M,0.0,M,,*67
$GPGSA,A,3,01,02,03,04,05,06,07,08,09,10,11,12,1.0,1.0,1.0*30
$GPRMC,154045.513,A,5430.842,N,01224.701,E,1942.3,275.4,271124,000.0,W*49
$GPGGA,154046.513,5430.893,N,01223.776,E,1,12,1.0,0.0,M,0.0,M,,*6F
$GPGSA,A,3,01,02,03,04,05,06,07,08,09,10,11,12,1.0,1.0,1.0*30
$GPRMC,154046.513,A,5430.893,N,01223.776,E,1942.2,275.4,271124,000.0,W*40
$GPGGA,154047.513,5430.943,N,01222.852,E,1,12,1.0,0.0,M,0.0,M,,*6A
$GPGSA,A,3,01,02,03,04,05,06,07,08,09,10,11,12,1.0,1.0,1.0*30
$GPRMC,154047.513,A,5430.943,N,01222.852,E,1942.2,275.4,271124,000.0,W*45
$GPGGA,154048.513,5430.993,N,01221.927,E,1,12,1.0,0.0,M,0.0,M,,*68
$GPGSA,A,3,01,02,03,04,05,06,07,08,09,10,11,12,1.0,1.0,1.0*30
$GPRMC,154048.513,A,5430.993,N,01221.927,E,1942.1,275.4,271124,000.0,W*44
$GPGGA,154049.513,5431.044,N,01221.002,E,1,12,1.0,0.0,M,0.0,M,,*65
$GPGSA,A,3,01,02,03,04,05,06,07,08,09,10,11,12,1.0,1.0,1.0*30
$GPRMC,154049.513,A,5431.044,N,01221.002,E,1942.1,275.4,271124,000.0,W*49
$GPGGA,154050.513,5431.094,N,01220.078,E,1,12,1.0,0.0,M,0.0,M,,*6C
$GPGSA,A,3,01,02,03,04,05,06,07,08,09,10,11,12,1.0,1.0,1.0*30
$GPRMC,154050.513,A,5431.094,N,01220.078,E,1942.1,275.4,271124,000.0,W*40
$GPGGA,154051.513,5431.145,N,01219.153,E,1,12,1.0,0.0,M,0.0,M,,*62
$GPGSA,A,3,01,02,03,04,05,06,07,08,09,10,11,12,1.0,1.0,1.0*30
$GPRMC,154051.513,A,5431.145,N,01219.153,E,1942.0,275.4,271124,000.0,W*4F
$GPGGA,154052.513,5431.195,N,01218.228,E,1,12,1.0,0.0,M,0.0,M,,*62
$GPGSA,A,3,01,02,03,04,05,06,07,08,09,10,11,12,1.0,1.0,1.0*30
$GPRMC,154052.513,A,5431.195,N,01218.228,E,1942.0,275.4,271124,000.0,W*4F
$GPGGA,154053.513,5431.245,N,01217.303,E,1,12,1.0,0.0,M,0.0,M,,*6A
$GPGSA,A,3,01,02,03,04,05,06,07,08,09,10,11,12,1.0,1.0,1.0*30
$GPRMC,154053.513,A,5431.245,N,01217.303,E,1941.9,275.4,271124,000.0,W*4D
$GPGGA,154054.513,5431.296,N,01216.379,E,1,12,1.0,0.0,M,0.0,M,,*6F
$GPGSA,A,3,01,02,03,04,05,06,07,08,09,10,11,12,1.0,1.0,1.0*30
$GPRMC,154054.513,A,5431.296,N,01216.379,E,1941.9,275.4,271124,000.0,W*48
$GPGGA,154055.513,5431.346,N,01215.454,E,1,12,1.0,0.0,M,0.0,M,,*69
$GPGSA,A,3,01,02,03,04,05,06,07,08,09,10,11,12,1.0,1.0,1.0*30
$GPRMC,154055.513,A,5431.346,N,01215.454,E,1941.9,275.4,271124,000.0,W*4E
$GPGGA,154056.513,5431.396,N,01214.529,E,1,12,1.0,0.0,M,0.0,M,,*6D
$GPGSA,A,3,01,02,03,04,05,06,07,08,09,10,11,12,1.0,1.0,1.0*30
$GPRMC,154056.513,A,5431.396,N,01214.529,E,1941.8,275.4,271124,000.0,W*4B
$GPGGA,154057.513,5431.447,N,01213.605,E,1,12,1.0,0.0,M,0.0,M,,*6D
$GPGSA,A,3,01,02,03,04,05,06,07,08,09,10,11,12,1.0,1.0,1.0*30
$GPRMC,154057.513,A,5431.447,N,01213.605,E,1941.8,275.4,271124,000.0,W*4B
$GPGGA,154058.513,5431.497,N,01212.680,E,1,12,1.0,0.0,M,0.0,M,,*63
$GPGSA,A,3,01,02,03,04,05,06,07,08,09,10,11,12,1.0,1.0,1.0*30
$GPRMC,154058.513,A,5431.497,N,01212.680,E,1941.8,275.4,271124,000.0,W*45
$GPGGA,154059.513,5431.547,N,01211.755,E,1,12,1.0,0.0,M,0.0,M,,*64
$GPGSA,A,3,01,02,03,04,05,06,07,08,09,10,11,12,1.0,1.0,1.0*30
$GPRMC,154059.513,A,5431.547,N,01211.755,E,1941.7,275.4,271124,000.0,W*4D
$GPGGA,154100.513,5431.598,N,01210.830,E,1,12,1.0,0.0,M,0.0,M,,*66
$GPGSA,A,3,01,02,03,04,05,06,07,08,09,10,11,12,1.0,1.0,1.0*30
$GPRMC,154100.513,A,5431.598,N,01210.830,E,1941.7,275.4,271124,000.0,W*4F
$GPGGA,154101.513,5431.648,N,01209.906,E,1,12,1.0,0.0,M,0.0,M,,*65
$GPGSA,A,3,01,02,03,04,05,06,07,08,09,10,11,12,1.0,1.0,1.0*30
$GPRMC,154101.513,A,5431.648,N,01209.906,E,1941.6,275.4,271124,000.0,W*4D
$GPGGA,154102.513,5431.699,N,01208.981,E,1,12,1.0,0.0,M,0.0,M,,*64
$GPGSA,A,3,01,02,03,04,05,06,07,08,09,10,11,12,1.0,1.0,1.0*30
$GPRMC,154102.513,A,5431.699,N,01208.981,E,1941.6,275.4,271124,000.0,W*4C
$GPGGA,154103.513,5431.749,N,01208.056,E,1,12,1.0,0.0,M,0.0,M,,*6A
$GPGSA,A,3,01,02,03,04,05,06,07,08,09,10,11,12,1.0,1.0,1.0*30
$GPRMC,154103.513,A,5431.749,N,01208.056,E,1941.6,275.4,271124,000.0,W*42
$GPGGA,154104.513,5431.799,N,01207.132,E,1,12,1.0,0.0,M,0.0,M,,*6C
$GPGSA,A,3,01,02,03,04,05,06,07,08,09,10,11,12,1.0,1.0,1.0*30
$GPRMC,154104.513,A,5431.799,N,01207.132,E,1941.5,275.4,271124,000.0,W*47
$GPGGA,154105.513,5431.850,N,01206.207,E,1,12,1.0,0.0,M,0.0,M,,*63
$GPGSA,A,3,01,02,03,04,05,06,07,08,09,10,11,12,1.0,1.0,1.0*30
$GPRMC,154105.513,A,5431.850,N,01206.207,E,1941.5,275.4,271124,000.0,W*48
$GPGGA,154106.513,5431.900,N,01205.282,E,1,12,1.0,0.0,M,0.0,M,,*6A
$GPGSA,A,3,01,02,03,04,05,06,07,08,09,10,11,12,1.0,1.0,1.0*30
$GPRMC,154106.513,A,5431.900,N,01205.282,E,1941.4,275.4,271124,000.0,W*40
$GPGGA,154107.513,5431.950,N,01204.357,E,1,12,1.0,0.0,M,0.0,M,,*66
$GPGSA,A,3,01,02,03,04,05,06,07,08,09,10,11,12,1.0,1.0,1.0*30
$GPRMC,154107.513,A,5431.950,N,01204.357,E,1941.4,275.4,271124,000.0,W*4C
$GPGGA,154108.513,5432.001,N,01203.433,E,1,12,1.0,0.0,M,0.0,M,,*65
$GPGSA,A,3,01,02,03,04,05,06,07,08,09,10,11,12,1.0,1.0,1.0*30
$GPRMC,154108.513,A,5432.001,N,01203.433,E,1941.4,275.4,271124,000.0,W*4F
$GPGGA,154109.513,5432.051,N,01202.508,E,1,12,1.0,0.0,M,0.0,M,,*69
$GPGSA,A,3,01,02,03,04,05,06,07,08,09,10,11,12,1.0,1.0,1.0*30
$GPRMC,154109.513,A,5432.051,N,01202.508,E,1941.3,275.4,271124,000.0,W*44
$GPGGA,154110.513,5432.102,N,01201.583,E,1,12,1.0,0.0,M,0.0,M,,*66
$GPGSA,A,3,01,02,03,04,05,06,07,08,09,10,11,12,1.0,1.0,1.0*30
$GPRMC,154110.513,A,5432.102,N,01201.583,E,1941.3,275.4,271124,000.0,W*4B
$GPGGA,154111.513,5432.152,N,01200.659,E,1,12,1.0,0.0,M,0.0,M,,*67
$GPGSA,A,3,01,02,03,04,05,06,07,08,09,10,11,12,1.0,1.0,1.0*30
$GPRMC,154111.513,A,5432.152,N,01200.659,E,1941.2,275.4,271124,000.0,W*4B
$GPGGA,154112.513,5432.202,N,01159.734,E,1,12,1.0,0.0,M,0.0,M,,*67
$GPGSA,A,3,01,02,03,04,05,06,07,08,09,10,11,12,1.0,1.0,1.0*30
$GPRMC,154112.513,A,5432.202,N,01159.734,E,1941.2,275.4,271124,000.0,W*4B
$GPGGA,154113.513,5432.253,N,01158.809,E,1,12,1.0,0.0,M,0.0,M,,*62
$GPGSA,A,3,01,02,03,04,05,06,07,08,09,10,11,12,1.0,1.0,1.0*30
$GPRMC,154113.513,A,5432.253,N,01158.809,E,1941.2,275.4,271124,000.0,W*4E
$GPGGA,154114.513,5432.303,N,01157.884,E,1,12,1.0,0.0,M,0.0,M,,*6B
$GPGSA,A,3,01,02,03,04,05,06,07,08,09,10,11,12,1.0,1.0,1.0*30
$GPRMC,154114.513,A,5432.303,N,01157.884,E,1941.1,275.4,271124,000.0,W*44
$GPGGA,154115.513,5432.353,N,01156.960,E,1,12,1.0,0.0,M,0.0,M,,*65
$GPGSA,A,3,01,02,03,04,05,06,07,08,09,10,11,12,1.0,1.0,1.0*30
$GPRMC,154115.513,A,5432.353,N,01156.960,E,1941.1,275.4,271124,000.0,W*4A
$GPGGA,154116.513,5432.404,N,01156.035,E,1,12,1.0,0.0,M,0.0,M,,*6A
$GPGSA,A,3,01,02,03,04,05,06,07,08,09,10,11,12,1.0,1.0,1.0*30
$GPRMC,154116.513,A,5432.404,N,01156.035,E,1941.0,275.4,271124,000.0,W*44
$GPGGA,154117.513,5432.454,N,01155.110,E,1,12,1.0,0.0,M,0.0,M,,*6B
$GPGSA,A,3,01,02,03,04,05,06,07,08,09,10,11,12,1.0,1.0,1.0*30
$GPRMC,154117.513,A,5432.454,N,01155.110,E,1941.0,275.4,271124,000.0,W*45
$GPGGA,154118.513,5432.504,N,01154.185,E,1,12,1.0,0.0,M,0.0,M,,*6D
$GPGSA,A,3,01,02,03,04,05,06,07,08,09,10,11,12,1.0,1.0,1.0*30
$GPRMC,154118.513,A,5432.504,N,01154.185,E,1941.0,275.4,271124,000.0,W*43
$GPGGA,154119.513,5432.555,N,01153.261,E,1,12,1.0,0.0,M,0.0,M,,*66
$GPGSA,A,3,01,02,03,04,05,06,07,08,09,10,11,12,1.0,1.0,1.0*30
$GPRMC,154119.513,A,5432.555,N,01153.261,E,1940.9,275.4,271124,000.0,W*40
$GPGGA,154120.513,5432.605,N,01152.336,E,1,12,1.0,0.0,M,0.0,M,,*68
$GPGSA,A,3,01,02,03,04,05,06,07,08,09,10,11,12,1.0,1.0,1.0*30
$GPRMC,154120.513,A,5432.605,N,01152.336,E,1940.9,275.4,271124,000.0,W*4E
$GPGGA,154121.513,5432.656,N,01151.411,E,1,12,1.0,0.0,M,0.0,M,,*6E
$GPGSA,A,3,01,02,03,04,05,06,07,08,09,10,11,12,1.0,1.0,1.0*30
$GPRMC,154121.513,A,5432.656,N,01151.411,E,1940.8,275.4,271124,000.0,W*49
$GPGGA,154122.513,5432.706,N,01150.487,E,1,12,1.0,0.0,M,0.0,M,,*67
$GPGSA,A,3,01,02,03,04,05,06,07,08,09,10,11,12,1.0,1.0,1.0*30
$GPRMC,154122.513,A,5432.706,N,01150.487,E,1940.8,275.4,271124,000.0,W*40
$GPGGA,154123.513,5432.756,N,01149.562,E,1,12,1.0,0.0,M,0.0,M,,*61
$GPGSA,A,3,01,02,03,04,05,06,07,08,09,10,11,12,1.0,1.0,1.0*30
$GPRMC,154123.513,A,5432.756,N,01149.562,E,1940.8,275.4,271124,000.0,W*46
$GPGGA,154124.513,5432.807,N,01148.637,E,1,12,1.0,0.0,M,0.0,M,,*6F
$GPGSA,A,3,01,02,03,04,05,06,07,08,09,10,11,12,1.0,1.0,1.0*30
$GPRMC,154124.513,A,5432.807,N,01148.637,E,1940.7,275.4,271124,000.0,W*47
$GPGGA,154125.513,5432.857,N,01147.712,E,1,12,1.0,0.0,M,0.0,M,,*62
$GPGSA,A,3,01,02,03,04,05,06,07,08,09,10,11,12,1.0,1.0,1.0*30
$GPRMC,154125.513,A,5432.857,N,01147.712,E,1940.7,275.4,271124,000.0,W*4A
$GPGGA,154126.513,5432.907,N,01146.788,E,1,12,1.0,0.0,M,0.0,M,,*67
$GPGSA,A,3,01,02,03,04,05,06,07,08,09,10,11,12,1.0,1.0,1.0*30
$GPRMC,154126.513,A,5432.907,N,01146.788,E,1940.6,275.4,271124,000.0,W*4E
$GPGGA,154127.513,5432.958,N,01145.863,E,1,12,1.0,0.0,M,0.0,M,,*65
$GPGSA,A,3,01,02,03,04,05,06,07,08,09,10,11,12,1.0,1.0,1.0*30
$GPRMC,154127.513,A,5432.958,N,01145.863,E,1940.6,275.4,271124,000.0,W*4C
$GPGGA,154128.513,5433.008,N,01144.938,E,1,12,1.0,0.0,M,0.0,M,,*69
$GPGSA,A,3,01,02,03,04,05,06,07,08,09,10,11,12,1.0,1.0,1.0*30
$GPRMC,154128.513,A,5433.008,N,01144.938,E,1940.6,275.4,271124,000.0,W*40
$GPGGA,154129.513,5433.059,N,01144.014,E,1,12,1.0,0.0,M,0.0,M,,*6B
$GPGSA,A,3,01,02,03,04,05,06,07,08,09,10,11,12,1.0,1.0,1.0*30
$GPRMC,154129.513,A,5433.059,N,01144.014,E,1940.5,275.4,271124,000.0,W*41
$GPGGA,154130.513,5433.109,N,01143.089,E,1,12,1.0,0.0,M,0.0,M,,*64
$GPGSA,A,3,01,02,03,04,05,06,07,08,09,10,11,12,1.0,1.0,1.0*30
$GPRMC,154130.513,A,5433.109,N,01143.089,E,1940.5,275.4,271124,000.0,W*4E
$GPGGA,154131.513,5433.159,N,01142.164,E,1,12,1.0,0.0,M,0.0,M,,*63
$GPGSA,A,3,01,02,03,04,05,06,07,08,09,10,11,12,1.0,1.0,1.0*30
$GPRMC,154131.513,A,5433.159,N,01142.164,E,1940.4,275.4,271124,000.0,W*48
$GPGGA,154132.513,5433.210,N,01141.239,E,1,12,1.0,0.0,M,0.0,M,,*66
$GPGSA,A,3,01,02,03,04,05,06,07,08,09,10,11,12,1.0,1.0,1.0*30
$GPRMC,154132.513,A,5433.210,N,01141.239,E,1940.4,275.4,271124,000.0,W*4D
$GPGGA,154133.513,5433.260,N,01140.315,E,1,12,1.0,0.0,M,0.0,M,,*6E
$GPGSA,A,3,01,02,03,04,05,06,07,08,09,10,11,12,1.0,1.0,1.0*30
$GPRMC,154133.513,A,5433.260,N,01140.315,E,1943.8,359.9,271124,000.0,W*48
$GPGGA,154134.513,5433.800,N,01140.312,E,1,12,1.0,0.0,M,0.0,M,,*62
$GPGSA,A,3,01,02,03,04,05,06,07,08,09,10,11,12,1.0,1.0,1.0*30
$GPRMC,154134.513,A,5433.800,N,01140.312,E,1943.8,359.9,271124,000.0,W*44
$GPGGA,154135.513,5434.339,N,01140.310,E,1,12,1.0,0.0,M,0.0,M,,*67
$GPGSA,A,3,01,02,03,04,05,06,07,08,09,10,11,12,1.0,1.0,1.0*30
$GPRMC,154135.513,A,5434.339,N,01140.310,E,1943.8,359.9,271124,000.0,W*41
$GPGGA,154136.513,5434.879,N,01140.308,E,1,12,1.0,0.0,M,0.0,M,,*62
$GPGSA,A,3,01,02,03,04,05,06,07,08,09,10,11,12,1.0,1.0,1.0*30
$GPRMC,154136.513,A,5434.879,N,01140.308,E,1943.8,359.9,271124,000.0,W*44
$GPGGA,154137.513,5435.418,N,01140.306,E,1,12,1.0,0.0,M,0.0,M,,*67
$GPGSA,A,3,01,02,03,04,05,06,07,08,09,10,11,12,1.0,1.0,1.0*30
$GPRMC,154137.513,A,5435.418,N,01140.306,E,1943.8,359.9,271124,000.0,W*41
$GPGGA,154138.513,5435.958,N,01140.303,E,1,12,1.0,0.0,M,0.0,M,,*64
$GPGSA,A,3,01,02,03,04,05,06,07,08,09,10,11,12,1.0,1.0,1.0*30
$GPRMC,154138.513,A,5435.958,N,01140.303,E,1943.8,359.9,271124,000.0,W*42
$GPGGA,154139.513,5436.498,N,01140.301,E,1,12,1.0,0.0,M,0.0,M,,*65
$GPGSA,A,3,01,02,03,04,05,06,07,08,09,10,11,12,1.0,1.0,1.0*30
$GPRMC,154139.513,A,5436.498,N,01140.301,E,1943.8,359.9,271124,000.0,W*43
$GPGGA,154140.513,5437.037,N,01140.299,E,1,12,1.0,0.0,M,0.0,M,,*6B
$GPGSA,A,3,01,02,03,04,05,06,07,08,09,10,11,12,1.0,1.0,1.0*30
$GPRMC,154140.513,A,5437.037,N,01140.299,E,1943.8,359.9,271124,000.0,W*4D
$GPGGA,154141.513,5437.577,N,01140.297,E,1,12,1.0,0.0,M,0.0,M,,*65
$GPGSA,A,3,01,02,03,04,05,06,07,08,09,10,11,12,1.0,1.0,1.0*30
$GPRMC,154141.513,A,5437.577,N,01140.297,E,1943.8,359.9,271124,000.0,W*43
$GPGGA,154142.513,5438.116,N,01140.294,E,1,12,1.0,0.0,M,0.0,M,,*69
$GPGSA,A,3,01,02,03,04,05,06,07,08,09,10,11,12,1.0,1.0,1.0*30
$GPRMC,154142.513,A,5438.116,N,01140.294,E,1943.8,359.9,271124,000.0,W*4F
$GPGGA,154143.513,5438.656,N,01140.292,E,1,12,1.0,0.0,M,0.0,M,,*6D
$GPGSA,A,3,01,02,03,04,05,06,07,08,09,10,11,12,1.0,1.0,1.0*30
$GPRMC,154143.513,A,5438.656,N,01140.292,E,1943.8,359.9,271124,000.0,W*4B
$GPGGA,154144.513,5439.196,N,01140.290,E,1,12,1.0,0.0,M,0.0,M,,*62
$GPGSA,A,3,01,02,03,04,05,06,07,08,09,10,11,12,1.0,1.0,1.0*30
$GPRMC,154144.513,A,5439.196,N,01140.290,E,1943.8,359.9,271124,000.0,W*44
$GPGGA,154145.513,5439.735,N,01140.288,E,1,12,1.0,0.0,M,0.0,M,,*65
$GPGSA,A,3,01,02,03,04,05,06,07,08,09,10,11,12,1.0,1.0,1.0*30
$GPRMC,154145.513,A,5439.735,N,01140.288,E,1943.8,359.9,271124,000.0,W*43
$GPGGA,154146.513,5440.275,N,01140.285,E,1,12,1.0,0.0,M,0.0,M,,*64
$GPGSA,A,3,01,02,03,04,05,06,07,08,09,10,11,12,1.0,1.0,1.0*30
$GPRMC,154146.513,A,5440.275,N,01140.285,E,1943.8,359.9,271124,000.0,W*42
$GPGGA,154147.513,5440.814,N,01140.283,E,1,12,1.0,0.0,M,0.0,M,,*6E
$GPGSA,A,3,01,02,03,04,05,06,07,08,09,10,11,12,1.0,1.0,1.0*30
$GPRMC,154147.513,A,5440.814,N,01140.283,E,1943.8,359.9,271124,000.0,W*48
$GPGGA,154148.513,5441.354,N,01140.281,E,1,12,1.0,0.0,M,0.0,M,,*6D
$GPGSA,A,3,01,02,03,04,05,06,07,08,09,10,11,12,1.0,1.0,1.0*30
$GPRMC,154148.513,A,5441.354,N,01140.281,E,1943.8,359.9,271124,000.0,W*4B
$GPGGA,154149.513,5441.893,N,01140.279,E,1,12,1.0,0.0,M,0.0,M,,*6B
$GPGSA,A,3,01,02,03,04,05,06,07,08,09,10,11,12,1.0,1.0,1.0*30
$GPRMC,154149.513,A,5441.893,N,01140.279,E,1943.8,359.9,271124,000.0,W*4D
$GPGGA,154150.513,5442.433,N,01140.276,E,1,12,1.0,0.0,M,0.0,M,,*69
$GPGSA,A,3,01,02,03,04,05,06,07,08,09,10,11,12,1.0,1.0,1.0*30
$GPRMC,154150.513,A,5442.433,N,01140.276,E,1943.8,359.9,271124,000.0,W*4F
$GPGGA,154151.513,5442.973,N,01140.274,E,1,12,1.0,0.0,M,0.0,M,,*63
$GPGSA,A,3,01,02,03,04,05,06,07,08,09,10,11,12,1.0,1.0,1.0*30
$GPRMC,154151.513,A,5442.973,N,01140.274,E,1943.8,359.9,271124,000.0,W*45
$GPGGA,154152.513,5443.512,N,01140.272,E,1,12,1.0,0.0,M,0.0,M,,*6C
$GPGSA,A,3,01,02,03,04,05,06,07,08,09,10,11,12,1.0,1.0,1.0*30
$GPRMC,154152.513,A,5443.512,N,01140.272,E,1943.8,359.9,271124,000.0,W*4A
$GPGGA,154153.513,5444.052,N,01140.269,E,1,12,1.0,0.0,M,0.0,M,,*61
$GPGSA,A,3,01,02,03,04,05,06,07,08,09,10,11,12,1.0,1.0,1.0*30
$GPRMC,154153.513,A,5444.052,N,01140.269,E,1943.8,359.9,271124,000.0,W*47
$GPGGA,154154.513,5444.591,N,01140.267,E,1,12,1.0,0.0,M,0.0,M,,*62
$GPGSA,A,3,01,02,03,04,05,06,07,08,09,10,11,12,1.0,1.0,1.0*30
$GPRMC,154154.513,A,5444.591,N,01140.267,E,1943.8,359.9,271124,000.0,W*44
$GPGGA,154155.513,5445.131,N,01140.265,E,1,12,1.0,0.0,M,0.0,M,,*6E
$GPGSA,A,3,01,02,03,04,05,06,07,08,09,10,11,12,1.0,1.0,1.0*30
$GPRMC,154155.513,A,5445.131,N,01140.265,E,1943.8,359.9,271124,000.0,W*48
$GPGGA,154156.513,5445.671,N,01140.263,E,1,12,1.0,0.0,M,0.0,M,,*68
$GPGSA,A,3,01,02,03,04,05,06,07,08,09,10,11,12,1.0,1.0,1.0*30
$GPRMC,154156.513,A,5445.671,N,01140.263,E,1943.8,359.9,271124,000.0,W*4E
$GPGGA,154157.513,5446.210,N,01140.260,E,1,12,1.0,0.0,M,0.0,M,,*6A
$GPGSA,A,3,01,02,03,04,05,06,07,08,09,10,11,12,1.0,1.0,1.0*30
$GPRMC,154157.513,A,5446.210,N,01140.260,E,1943.8,359.9,271124,000.0,W*4C
$GPGGA,154158.513,5446.750,N,01140.258,E,1,12,1.0,0.0,M,0.0,M,,*6F
$GPGSA,A,3,01,02,03,04,05,06,07,08,09,10,11,12,1.0,1.0,1.0*30
$GPRMC,154158.513,A,5446.750,N,01140.258,E,1943.8,359.9,271124,000.0,W*49
$GPGGA,154159.513,5447.289,N,01140.256,E,1,12,1.0,0.0,M,0.0,M,,*60
$GPGSA,A,3,01,02,03,04,05,06,07,08,09,10,11,12,1.0,1.0,1.0*30
$GPRMC,154159.513,A,5447.289,N,01140.256,E,1943.8,359.9,271124,000.0,W*46
$GPGGA,154200.513,5447.829,N,01140.254,E,1,12,1.0,0.0,M,0.0,M,,*6D
$GPGSA,A,3,01,02,03,04,05,06,07,08,09,10,11,12,1.0,1.0,1.0*30
$GPRMC,154200.513,A,5447.829,N,01140.254,E,1943.8,359.9,271124,000.0,W*4B
$GPGGA,154201.513,5448.369,N,01140.251,E,1,12,1.0,0.0,M,0.0,M,,*69
$GPGSA,A,3,01,02,03,04,05,06,07,08,09,10,11,12,1.0,1.0,1.0*30
$GPRMC,154201.513,A,5448.369,N,01140.251,E,1943.8,359.9,271124,000.0,W*4F
$GPGGA,154202.513,5448.908,N,01140.249,E,1,12,1.0,0.0,M,0.0,M,,*6E
$GPGSA,A,3,01,02,03,04,05,06,07,08,09,10,11,12,1.0,1.0,1.0*30
$GPRMC,154202.513,A,5448.908,N,01140.249,E,1943.8,359.9,271124,000.0,W*48
$GPGGA,154203.513,5449.448,N,01140.247,E,1,12,1.0,0.0,M,0.0,M,,*69
$GPGSA,A,3,01,02,03,04,05,06,07,08,09,10,11,12,1.0,1.0,1.0*30
$GPRMC,154203.513,A,5449.448,N,01140.247,E,1943.8,359.9,271124,000.0,W*4F
$GPGGA,154204.513,5449.987,N,01140.245,E,1,12,1.0,0.0,M,0.0,M,,*62
$GPGSA,A,3,01,02,03,04,05,06,07,08,09,10,11,12,1.0,1.0,1.0*30
$GPRMC,154204.513,A,5449.987,N,01140.245,E,1943.8,359.9,271124,000.0,W*44
$GPGGA,154205.513,5450.527,N,01140.242,E,1,12,1.0,0.0,M,0.0,M,,*6A
$GPGSA,A,3,01,02,03,04,05,06,07,08,09,10,11,12,1.0,1.0,1.0*30
$GPRMC,154205.513,A,5450.527,N,01140.242,E,1943.8,359.9,271124,000.0,W*4C
$GPGGA,154206.513,5451.067,N,01140.240,E,1,12,1.0,0.0,M,0.0,M,,*6B
$GPGSA,A,3,01,02,03,04,05,06,07,08,09,10,11,12,1.0,1.0,1.0*30
$GPRMC,154206.513,A,5451.067,N,01140.240,E,1943.8,359.9,271124,000.0,W*4D
$GPGGA,154207.513,5451.606,N,01140.238,E,1,12,1.0,0.0,M,0.0,M,,*64
$GPGSA,A,3,01,02,03,04,05,06,07,08,09,10,11,12,1.0,1.0,1.0*30
$GPRMC,154207.513,A,5451.606,N,01140.238,E,1943.8,359.9,271124,000.0,W*42
$GPGGA,154208.513,5452.146,N,01140.236,E,1,12,1.0,0.0,M,0.0,M,,*65
$GPGSA,A,3,01,02,03,04,05,06,07,08,09,10,11,12,1.0,1.0,1.0*30
$GPRMC,154208.513,A,5452.146,N,01140.236,E,1943.8,359.9,271124,000.0,W*43
$GPGGA,154209.513,5452.685,N,01140.233,E,1,12,1.0,0.0,M,0.0,M,,*69
$GPGSA,A,3,01,02,03,04,05,06,07,08,09,10,11,12,1.0,1.0,1.0*30
$GPRMC,154209.513,A,5452.685,N,01140.233,E,1943.8,359.9,271124,000.0,W*4F
$GPGGA,154210.513,5453.225,N,01140.231,E,1,12,1.0,0.0,M,0.0,M,,*6C
$GPGSA,A,3,01,02,03,04,05,06,07,08,09,10,11,12,1.0,1.0,1.0*30
$GPRMC,154210.513,A,5453.225,N,01140.231,E,1943.8,359.9,271124,000.0,W*4A
$GPGGA,154211.513,5453.765,N,01140.229,E,1,12,1.0,0.0,M,0.0,M,,*65
$GPGSA,A,3,01,02,03,04,05,06,07,08,09,10,11,12,1.0,1.0,1.0*30
$GPRMC,154211.513,A,5453.765,N,01140.229,E,1943.8,359.9,271124,000.0,W*43
$GPGGA,154212.513,5454.304,N,01140.227,E,1,12,1.0,0.0,M,0.0,M,,*6C
$GPGSA,A,3,01,02,03,04,05,06,07,08,09,10,11,12,1.0,1.0,1.0*30
$GPRMC,154212.513,A,5454.304,N,01140.227,E,1943.8,359.9,271124,000.0,W*4A
$GPGGA,154213.513,5454.844,N,01140.224,E,1,12,1.0,0.0,M,0.0,M,,*61
$GPGSA,A,3,01,02,03,04,05,06,07,08,09,10,11,12,1.0,1.0,1.0*30
$GPRMC,154213.513,A,5454.844,N,01140.224,E,1943.8,359.9,271124,000.0,W*47
$GPGGA,154214.513,5455.383,N,01140.222,E,1,12,1.0,0.0,M,0.0,M,,*61
$GPGSA,A,3,01,02,03,04,05,06,07,08,09,10,11,12,1.0,1.0,1.0*30
$GPRMC,154214.513,A,5455.383,N,01140.222,E,1943.8,359.9,271124,000.0,W*47
$GPGGA,154215.513,5455.923,N,01140.220,E,1,12,1.0,0.0,M,0.0,M,,*62
$GPGSA,A,3,01,02,03,04,05,06,07,08,09,10,11,12,1.0,1.0,1.0*30
$GPRMC,154215.513,A,5455.923,N,01140.220,E,1943.8,359.9,271124,000.0,W*44
$GPGGA,154216.513,5456.462,N,01140.217,E,1,12,1.0,0.0,M,0.0,M,,*6E
$GPGSA,A,3,01,02,03,04,05,06,07,08,09,10,11,12,1.0,1.0,1.0*30
$GPRMC,154216.513,A,5456.462,N,01140.217,E,1943.8,359.9,271124,000.0,W*48
$GPGGA,154217.513,5457.002,N,01140.215,E,1,12,1.0,0.0,M,0.0,M,,*6E
$GPGSA,A,3,01,02,03,04,05,06,07,08,09,10,11,12,1.0,1.0,1.0*30
$GPRMC,154217.513,A,5457.002,N,01140.215,E,1943.8,359.9,271124,000.0,W*48
$GPGGA,154218.513,5457.542,N,01140.213,E,1,12,1.0,0.0,M,0.0,M,,*66
$GPGSA,A,3,01,02,03,04,05,06,07,08,09,10,11,12,1.0,1.0,1.0*30
$GPRMC,154218.513,A,5457.542,N,01140.213,E,1943.8,359.9,271124,000.0,W*40
$GPGGA,154219.513,5458.081,N,01140.211,E,1,12,1.0,0.0,M,0.0,M,,*60
$GPGSA,A,3,01,02,03,04,05,06,07,08,09,10,11,12,1.0,1.0,1.0*30
$GPRMC,154219.513,A,5458.081,N,01140.211,E,1943.8,359.9,271124,000.0,W*46
$GPGGA,154220.513,5458.621,N,01140.208,E,1,12,1.0,0.0,M,0.0,M,,*6E
$GPGSA,A,3,01,02,03,04,05,06,07,08,09,10,11,12,1.0,1.0,1.0*30
$GPRMC,154220.513,A,5458.621,N,01140.208,E,1943.8,359.9,271124,000.0,W*48
$GPGGA,154221.513,5459.160,N,01140.206,E,1,12,1.0,0.0,M,0.0,M,,*62
$GPGSA,A,3,01,02,03,04,05,06,07,08,09,10,11,12,1.0,1.0,1.0*30
$GPRMC,154221.513,A,5459.160,N,01140.206,E,1943.8,359.9,271124,000.0,W*44
$GPGGA,154222.513,5459.700,N,01140.204,E,1,12,1.0,0.0,M,0.0,M,,*63
$GPGSA,A,3,01,02,03,04,05,06,07,08,09,10,11,12,1.0,1.0,1.0*30
$GPRMC,154222.513,A,5459.700,N,01140.204,E,1943.8,359.9,271124,000.0,W*45
$GPGGA,154223.513,5500.240,N,01140.202,E,1,12,1.0,0.0,M,0.0,M,,*68
$GPGSA,A,3,01,02,03,04,05,06,07,08,09,10,11,12,1.0,1.0,1.0*30
$GPRMC,154223.513,A,5500.240,N,01140.202,E,1943.8,359.9,271124,000.0,W*4E
$GPGGA,154224.513,5500.779,N,01140.199,E,1,12,1.0,0.0,M,0.0,M,,*61
$GPGSA,A,3,01,02,03,04,05,06,07,08,09,10,11,12,1.0,1.0,1.0*30
$GPRMC,154224.513,A,5500.779,N,01140.199,E,1943.8,359.9,271124,000.0,W*47
$GPGGA,154225.513,5501.319,N,01140.197,E,1,12,1.0,0.0,M,0.0,M,,*6D
$GPGSA,A,3,01,02,03,04,05,06,07,08,09,10,11,12,1.0,1.0,1.0*30
$GPRMC,154225.513,A,5501.319,N,01140.197,E,1943.8,359.9,271124,000.0,W*4B
$GPGGA,154226.513,5501.858,N,01140.195,E,1,12,1.0,0.0,M,0.0,M,,*62
$GPGSA,A,3,01,02,03,04,05,06,07,08,09,10,11,12,1.0,1.0,1.0*30
$GPRMC,154226.513,A,5501.858,N,01140.195,E,1943.8,359.9,271124,000.0,W*44
$GPGGA,154227.513,5502.398,N,01140.193,E,1,12,1.0,0.0,M,0.0,M,,*61
$GPGSA,A,3,01,02,03,04,05,06,07,08,09,10,11,12,1.0,1.0,1.0*30
$GPRMC,154227.513,A,5502.398,N,01140.193,E,1943.8,359.9,271124,000.0,W*47
$GPGGA,154228.513,5502.938,N,01140.190,E,1,12,1.0,0.0,M,0.0,M,,*6D
$GPGSA,A,3,01,02,03,04,05,06,07,08,09,10,11,12,1.0,1.0,1.0*30
$GPRMC,154228.513,A,5502.938,N,01140.190,E,1943.8,359.9,271124,000.0,W*4B
$GPGGA,154229.513,5503.477,N,01140.188,E,1,12,1.0,0.0,M,0.0,M,,*62
$GPGSA,A,3,01,02,03,04,05,06,07,08,09,10,11,12,1.0,1.0,1.0*30
$GPRMC,154229.513,A,5503.477,N,01140.188,E,1943.8,359.9,271124,000.0,W*44
$GPGGA,154230.513,5504.017,N,01140.186,E,1,12,1.0,0.0,M,0.0,M,,*61
$GPGSA,A,3,01,02,03,04,05,06,07,08,09,10,11,12,1.0,1.0,1.0*30
$GPRMC,154230.513,A,5504.017,N,01140.186,E,1943.8,359.9,271124,000.0,W*47
$GPGGA,154231.513,5504.556,N,01140.184,E,1,12,1.0,0.0,M,0.0,M,,*62
$GPGSA,A,3,01,02,03,04,05,06,07,08,09,10,11,12,1.0,1.0,1.0*30
$GPRMC,154231.513,A,5504.556,N,01140.184,E,1943.8,359.9,271124,000.0,W*44
$GPGGA,154232.513,5505.096,N,01140.181,E,1,12,1.0,0.0,M,0.0,M,,*6C
$GPGSA,A,3,01,02,03,04,05,06,07,08,09,10,11,12,1.0,1.0,1.0*30
$GPRMC,154232.513,A,5505.096,N,01140.181,E,1943.8,359.9,271124,000.0,W*4A
$GPGGA,154233.513,5505.636,N,01140.179,E,1,12,1.0,0.0,M,0.0,M,,*66
$GPGSA,A,3,01,02,03,04,05,06,07,08,09,10,11,12,1.0,1.0,1.0*30
$GPRMC,154233.513,A,5505.636,N,01140.179,E,1943.8,359.9,271124,000.0,W*40
$GPGGA,154234.513,5506.175,N,01140.177,E,1,12,1.0,0.0,M,0.0,M,,*6C
$GPGSA,A,3,01,02,03,04,05,06,07,08,09,10,11,12,1.0,1.0,1.0*30
$GPRMC,154234.513,A,5506.175,N,01140.177,E,1943.8,359.9,271124,000.0,W*4A
$GPGGA,154235.513,5506.715,N,01140.174,E,1,12,1.0,0.0,M,0.0,M,,*6E
$GPGSA,A,3,01,02,03,04,05,06,07,08,09,10,11,12,1.0,1.0,1.0*30
$GPRMC,154235.513,A,5506.715,N,01140.174,E,1943.8,359.9,271124,000.0,W*48
$GPGGA,154236.513,5507.254,N,01140.172,E,1,12,1.0,0.0,M,0.0,M,,*6A
$GPGSA,A,3,01,02,03,04,05,06,07,08,09,10,11,12,1.0,1.0,1.0*30
$GPRMC,154236.513,A,5507.254,N,01140.172,E,1943.8,359.9,271124,000.0,W*4C
$GPGGA,154237.513,5507.794,N,01140.170,E,1,12,1.0,0.0,M,0.0,M,,*60
$GPGSA,A,3,01,02,03,04,05,06,07,08,09,10,11,12,1.0,1.0,1.0*30
$GPRMC,154237.513,A,5507.794,N,01140.170,E,1943.8,359.9,271124,000.0,W*46
$GPGGA,154238.513,5508.333,N,01140.168,E,1,12,1.0,0.0,M,0.0,M,,*60
$GPGSA,A,3,01,02,03,04,05,06,07,08,09,10,11,12,1.0,1.0,1.0*30
$GPRMC,154238.513,A,5508.333,N,01140.168,E,1943.8,359.9,271124,000.0,W*46
$GPGGA,154239.513,5508.873,N,01140.165,E,1,12,1.0,0.0,M,0.0,M,,*63
$GPGSA,A,3,01,02,03,04,05,06,07,08,09,10,11,12,1.0,1.0,1.0*30
$GPRMC,154239.513,A,5508.873,N,01140.165,E,1943.8,359.9,271124,000.0,W*45
$GPGGA,154240.513,5509.413,N,01140.163,E,1,12,1.0,0.0,M,0.0,M,,*60
$GPGSA,A,3,01,02,03,04,05,06,07,08,09,10,11,12,1.0,1.0,1.0*30
$GPRMC,154240.513,A,5509.413,N,01140.163,E,1943.8,359.9,271124,000.0,W*46
$GPGGA,154241.513,5509.952,N,01140.161,E,1,12,1.0,0.0,M,0.0,M,,*6B
$GPGSA,A,3,01,02,03,04,05,06,07,08,09,10,11,12,1.0,1.0,1.0*30
$GPRMC,154241.513,A,5509.952,N,01140.161,E,1943.8,359.9,271124,000.0,W*4D
$GPGGA,154242.513,5510.492,N,01140.159,E,1,12,1.0,0.0,M,0.0,M,,*6A
$GPGSA,A,3,01,02,03,04,05,06,07,08,09,10,11,12,1.0,1.0,1.0*30
$GPRMC,154242.513,A,5510.492,N,01140.159,E,1943.8,359.9,271124,000.0,W*4C
$GPGGA,154243.513,5511.031,N,01140.156,E,1,12,1.0,0.0,M,0.0,M,,*68
$GPGSA,A,3,01,02,03,04,05,06,07,08,09,10,11,12,1.0,1.0,1.0*30
$GPRMC,154243.513,A,5511.031,N,01140.156,E,1943.8,359.9,271124,000.0,W*4E
$GPGGA,154244.513,5511.571,N,01140.154,E,1,12,1.0,0.0,M,0.0,M,,*6C
$GPGSA,A,3,01,02,03,04,05,06,07,08,09,10,11,12,1.0,1.0,1.0*30
$GPRMC,154244.513,A,5511.571,N,01140.154,E,1943.8,359.9,271124,000.0,W*4A
$GPGGA,154245.513,5512.111,N,01140.152,E,1,12,1.0,0.0,M,0.0,M,,*6A
$GPGSA,A,3,01,02,03,04,05,06,07,08,09,10,11,12,1.0,1.0,1.0*30
$GPRMC,154245.513,A,5512.111,N,01140.152,E,1943.8,359.9,271124,000.0,W*4C
$GPGGA,154246.513,5512.650,N,01140.150,E,1,12,1.0,0.0,M,0.0,M,,*69
$GPGSA,A,3,01,02,03,04,05,06,07,08,09,10,11,12,1.0,1.0,1.0*30
$GPRMC,154246.513,A,5512.650,N,01140.150,E,1943.8,359.9,271124,000.0,W*4F
$GPGGA,154247.513,5513.190,N,01140.147,E,1,12,1.0,0.0,M,0.0,M,,*64
$GPGSA,A,3,01,02,03,04,05,06,07,08,09,10,11,12,1.0,1.0,1.0*30
$GPRMC,154247.513,A,5513.190,N,01140.147,E,1943.8,359.9,271124,000.0,W*42
$GPGGA,154248.513,5513.729,N,01140.145,E,1,12,1.0,0.0,M,0.0,M,,*6D
$GPGSA,A,3,01,02,03,04,05,06,07,08,09,10,11,12,1.0,1.0,1.0*30
$GPRMC,154248.513,A,5513.729,N,01140.145,E,1943.8,359.9,271124,000.0,W*4B
$GPGGA,154249.513,5514.269,N,01140.143,E,1,12,1.0,0.0,M,0.0,M,,*6C
$GPGSA,A,3,01,02,03,04,05,06,07,08,09,10,11,12,1.0,1.0,1.0*30
$GPRMC,154249.513,A,5514.269,N,01140.143,E,1943.8,359.9,271124,000.0,W*4A
$GPGGA,154250.513,5514.809,N,01140.141,E,1,12,1.0,0.0,M,0.0,M,,*6A
$GPGSA,A,3,01,02,03,04,05,06,07,08,09,10,11,12,1.0,1.0,1.0*30
$GPRMC,154250.513,A,5514.809,N,01140.141,E,1943.8,359.9,271124,000.0,W*4C
$GPGGA,154251.513,5515.348,N,01140.138,E,1,12,1.0,0.0,M,0.0,M,,*6A
$GPGSA,A,3,01,02,03,04,05,06,07,08,09,10,11,12,1.0,1.0,1.0*30
$GPRMC,154251.513,A,5515.348,N,01140.138,E,1943.8,359.9,271124,000.0,W*4C
$GPGGA,154252.513,5515.888,N,01140.136,E,1,12,1.0,0.0,M,0.0,M,,*60
$GPGSA,A,3,01,02,03,04,05,06,07,08,09,10,11,12,1.0,1.0,1.0*30
$GPRMC,154252.513,A,5515.888,N,01140.136,E,1943.8,359.9,271124,000.0,W*46
$GPGGA,154253.513,5516.427,N,01140.134,E,1,12,1.0,0.0,M,0.0,M,,*69
$GPGSA,A,3,01,02,03,04,05,06,07,08,09,10,11,12,1.0,1.0,1.0*30
$GPRMC,154253.513,A,5516.427,N,01140.134,E,1943.8,359.9,271124,000.0,W*4F
$GPGGA,154254.513,5516.967,N,01140.132,E,1,12,1.0,0.0,M,0.0,M,,*61
$GPGSA,A,3,01,02,03,04,05,06,07,08,09,10,11,12,1.0,1.0,1.0*30
$GPRMC,154254.513,A,5516.967,N,01140.132,E,1943.8,359.9,271124,000.0,W*47
$GPGGA,154255.513,5517.507,N,01140.129,E,1,12,1.0,0.0,M,0.0,M,,*61
$GPGSA,A,3,01,02,03,04,05,06,07,08,09,10,11,12,1.0,1.0,1.0*30
$GPRMC,154255.513,A,5517.507,N,01140.129,E,1943.8,359.9,271124,000.0,W*47
$GPGGA,154256.513,5518.046,N,01140.127,E,1,12,1.0,0.0,M,0.0,M,,*63
$GPGSA,A,3,01,02,03,04,05,06,07,08,09,10,11,12,1.0,1.0,1.0*30
$GPRMC,154256.513,A,5518.046,N,01140.127,E,1943.8,359.9,271124,000.0,W*45
$GPGGA,154257.513,5518.586,N,01140.125,E,1,12,1.0,0.0,M,0.0,M,,*69
$GPGSA,A,3,01,02,03,04,05,06,07,08,09,10,11,12,1.0,1.0,1.0*30
$GPRMC,154257.513,A,5518.586,N,01140.125,E,1943.8,359.9,271124,000.0,W*4F
$GPGGA,154258.513,5519.125,N,01140.122,E,1,12,1.0,0.0,M,0.0,M,,*6D
$GPGSA,A,3,01,02,03,04,05,06,07,08,09,10,11,12,1.0,1.0,1.0*30
$GPRMC,154258.513,A,5519.125,N,01140.122,E,1943.8,359.9,271124,000.0,W*4B
$GPGGA,154259.513,5519.665,N,01140.120,E,1,12,1.0,0.0,M,0.0,M,,*6D
$GPGSA,A,3,01,02,03,04,05,06,07,08,09,10,11,12,1.0,1.0,1.0*30
$GPRMC,154259.513,A,5519.665,N,01140.120,E,1943.8,359.9,271124,000.0,W*4B
$GPGGA,154300.513,5520.204,N,01140.118,E,1,12,1.0,0.0,M,0.0,M,,*62
$GPGSA,A,3,01,02,03,04,05,06,07,08,09,10,11,12,1.0,1.0,1.0*30
$GPRMC,154300.513,A,5520.204,N,01140.118,E,1943.8,359.9,271124,000.0,W*44
$GPGGA,154301.513,5520.744,N,01140.116,E,1,12,1.0,0.0,M,0.0,M,,*6C
$GPGSA,A,3,01,02,03,04,05,06,07,08,09,10,11,12,1.0,1.0,1.0*30
$GPRMC,154301.513,A,5520.744,N,01140.116,E,1943.8,359.9,271124,000.0,W*4A
$GPGGA,154302.513,5521.284,N,01140.113,E,1,12,1.0,0.0,M,0.0,M,,*62
$GPGSA,A,3,01,02,03,04,05,06,07,08,09,10,11,12,1.0,1.0,1.0*30
$GPRMC,154302.513,A,5521.284,N,01140.113,E,1943.8,359.9,271124,000.0,W*44
$GPGGA,154303.513,5521.823,N,01140.111,E,1,12,1.0,0.0,M,0.0,M,,*66
$GPGSA,A,3,01,02,03,04,05,06,07,08,09,10,11,12,1.0,1.0,1.0*30
$GPRMC,154303.513,A,5521.823,N,01140.111,E,1943.8,359.9,271124,000.0,W*40
$GPGGA,154304.513,5522.363,N,01140.109,E,1,12,1.0,0.0,M,0.0,M,,*64
$GPGSA,A,3,01,02,03,04,05,06,07,08,09,10,11,12,1.0,1.0,1.0*30
$GPRMC,154304.513,A,5522.363,N,01140.109,E,1943.8,359.9,271124,000.0,W*42
$GPGGA,154305.513,5522.902,N,01140.107,E,1,12,1.0,0.0,M,0.0,M,,*66
$GPGSA,A,3,01,02,03,04,05,06,07,08,09,10,11,12,1.0,1.0,1.0*30
$GPRMC,154305.513,A,5522.902,N,01140.107,E,1943.8,359.9,271124,000.0,W*40
$GPGGA,154306.513,5523.442,N,01140.104,E,1,12,1.0,0.0,M,0.0,M,,*6E
$GPGSA,A,3,01,02,03,04,05,06,07,08,09,10,11,12,1.0,1.0,1.0*30
$GPRMC,154306.513,A,5523.442,N,01140.104,E,1943.8,359.9,271124,000.0,W*48
$GPGGA,154307.513,5523.982,N,01140.102,E,1,12,1.0,0.0,M,0.0,M,,*68
$GPGSA,A,3,01,02,03,04,05,06,07,08,09,10,11,12,1.0,1.0,1.0*30
$GPRMC,154307.513,A,5523.982,N,01140.102,E,1943.8,359.9,271124,000.0,W*4E
$GPGGA,154308.513,5524.521,N,01140.100,E,1,12,1.0,0.0,M,0.0,M,,*67
$GPGSA,A,3,01,02,03,04,05,06,07,08,09,10,11,12,1.0,1.0,1.0*30
$GPRMC,154308.513,A,5524.521,N,01140.100,E,1943.8,359.9,271124,000.0,W*41
$GPGGA,154309.513,5525.061,N,01140.098,E,1,12,1.0,0.0,M,0.0,M,,*66
$GPGSA,A,3,01,02,03,04,05,06,07,08,09,10,11,12,1.0,1.0,1.0*30
$GPRMC,154309.513,A,5525.061,N,01140.098,E,1943.8,359.9,271124,000.0,W*40
$GPGGA,154310.513,5525.600,N,01140.095,E,1,12,1.0,0.0,M,0.0,M,,*62
$GPGSA,A,3,01,02,03,04,05,06,07,08,09,10,11,12,1.0,1.0,1.0*30
$GPRMC,154310.513,A,5525.600,N,01140.095,E,1943.8,359.9,271124,000.0,W*44
$GPGGA,154311.513,5526.140,N,01140.093,E,1,12,1.0,0.0,M,0.0,M,,*65
$GPGSA,A,3,01,02,03,04,05,06,07,08,09,10,11,12,1.0,1.0,1.0*30
$GPRMC,154311.513,A,5526.140,N,01140.093,E,1943.8,359.9,271124,000.0,W*43
$GPGGA,154312.513,5526.680,N,01140.091,E,1,12,1.0,0.0,M,0.0,M,,*6F
$GPGSA,A,3,01,02,03,04,05,06,07,08,09,10,11,12,1.0,1.0,1.0*30
$GPRMC,154312.513,A,5526.680,N,01140.091,E,1943.8,359.9,271124,000.0,W*49
$GPGGA,154313.513,5527.219,N,01140.089,E,1,12,1.0,0.0,M,0.0,M,,*62
$GPGSA,A,3,01,02,03,04,05,06,07,08,09,10,11,12,1.0,1.0,1.0*30
$GPRMC,154313.513,A,5527.219,N,01140.089,E,1943.8,359.9,271124,000.0,W*44
$GPGGA,154314.513,5527.759,N,01140.086,E,1,12,1.0,0.0,M,0.0,M,,*6B
$GPGSA,A,3,01,02,03,04,05,06,07,08,09,10,11,12,1.0,1.0,1.0*30
$GPRMC,154314.513,A,5527.759,N,01140.086,E,1943.8,359.9,271124,000.0,W*4D
$GPGGA,154315.513,5528.298,N,01140.084,E,1,12,1.0,0.0,M,0.0,M,,*6F
$GPGSA,A,3,01,02,03,04,05,06,07,08,09,10,11,12,1.0,1.0,1.0*30
$GPRMC,154315.513,A,5528.298,N,01140.084,E,1943.8,359.9,271124,000.0,W*49
$GPGGA,154316.513,5528.838,N,01140.082,E,1,12,1.0,0.0,M,0.0,M,,*6A
$GPGSA,A,3,01,02,03,04,05,06,07,08,09,10,11,12,1.0,1.0,1.0*30
$GPRMC,154316.513,A,5528.838,N,01140.082,E,1943.8,359.9,271124,000.0,W*4C
$GPGGA,154317.513,5529.378,N,01140.079,E,1,12,1.0,0.0,M,0.0,M,,*61
$GPGSA,A,3,01,02,03,04,05,06,07,08,09,10,11,12,1.0,1.0,1.0*30
$GPRMC,154317.513,A,5529.378,N,01140.079,E,1943.8,359.9,271124,000.0,W*47
$GPGGA,154318.513,5529.917,N,01140.077,E,1,12,1.0,0.0,M,0.0,M,,*63
$GPGSA,A,3,01,02,03,04,05,06,07,08,09,10,11,12,1.0,1.0,1.0*30
$GPRMC,154318.513,A,5529.917,N,01140.077,E,1943.8,359.9,271124,000.0,W*45
$GPGGA,154319.513,5530.457,N,01140.075,E,1,12,1.0,0.0,M,0.0,M,,*61
$GPGSA,A,3,01,02,03,04,05,06,07,08,09,10,11,12,1.0,1.0,1.0*30
$GPRMC,154319.513,A,5530.457,N,01140.075,E,1943.8,359.9,271124,000.0,W*47
$GPGGA,154320.513,5530.996,N,01140.073,E,1,12,1.0,0.0,M,0.0,M,,*6D
$GPGSA,A,3,01,02,03,04,05,06,07,08,09,10,11,12,1.0,1.0,1.0*30
$GPRMC,154320.513,A,5530.996,N,01140.073,E,1943.8,359.9,271124,000.0,W*4B
$GPGGA,154321.513,5531.536,N,01140.070,E,1,12,1.0,0.0,M,0.0,M,,*68
$GPGSA,A,3,01,02,03,04,05,06,07,08,09,10,11,12,1.0,1.0,1.0*30
$GPRMC,154321.513,A,5531.536,N,01140.070,E,1943.8,359.9,271124,000.0,W*4E
$GPGGA,154322.513,5532.075,N,01140.068,E,1,12,1.0,0.0,M,0.0,M,,*63
$GPGSA,A,3,01,02,03,04,05,06,07,08,09,10,11,12,1.0,1.0,1.0*30
$GPRMC,154322.513,A,5532.075,N,01140.068,E,1943.8,359.9,271124,000.0,W*45
$GPGGA,154323.513,5532.615,N,01140.066,E,1,12,1.0,0.0,M,0.0,M,,*6C
$GPGSA,A,3,01,02,03,04,05,06,07,08,09,10,11,12,1.0,1.0,1.0*30
$GPRMC,154323.513,A,5532.615,N,01140.066,E,1943.8,359.9,271124,000.0,W*4A
$GPGGA,154324.513,5533.155,N,01140.064,E,1,12,1.0,0.0,M,0.0,M,,*6B
$GPGSA,A,3,01,02,03,04,05,06,07,08,09,10,11,12,1.0,1.0,1.0*30
$GPRMC,154324.513,A,5533.155,N,01140.064,E,1943.8,359.9,271124,000.0,W*4D
$GPGGA,154325.513,5533.694,N,01140.061,E,1,12,1.0,0.0,M,0.0,M,,*65
$GPGSA,A,3,01,02,03,04,05,06,07,08,09,10,11,12,1.0,1.0,1.0*30
$GPRMC,154325.513,A,5533.694,N,01140.061,E,1943.8,359.9,271124,000.0,W*43
$GPGGA,154326.513,5534.234,N,01140.059,E,1,12,1.0,0.0,M,0.0,M,,*64
